nombre,cod_prov,cod_depto,cod_loc,cod_bahra,tipo_bahra,lat,lon
CIUDAD DE BUENOS AIRES,02,000,010,02000010000,LC,-34.6132917290185,-58.3887517365082
CONSTITUCION,02,007,010,02001010001,E,-34.6250478642294,-58.384387226424
MONSERRAT,02,007,010,02001010002,E,-34.6126880821742,-58.379652044818
PUERTO MADERO,02,007,010,02001010003,E,-34.6092161933037,-58.3563809151849
RETIRO,02,007,010,02001010004,E,-34.5884243429366,-58.3759359131827
SAN NICOLAS,02,007,010,02001010005,E,-34.6036683192305,-58.3805143256131
SAN TELMO,02,007,010,02001010006,E,-34.6215200115838,-58.3715453876304
RECOLETA,02,014,010,02002010001,E,-34.5858760078165,-58.3949961802632
BALVANERA,02,021,010,02003010001,E,-34.6090997738407,-58.4030625195747
SAN CRISTOBAL,02,021,010,02003010002,E,-34.623864473461,-58.4018857979853
BARRACAS,02,028,010,02004010001,E,-34.6464135507847,-58.3842710319828
BOCA,02,028,010,02004010002,E,-34.6310700719721,-58.3568304109892
NUEVA POMPEYA,02,028,010,02004010003,E,-34.6505501963997,-58.4188550090093
PARQUE PATRICIOS,02,028,010,02004010004,E,-34.6375496406835,-58.4016756206755
ALMAGRO,02,035,010,02005010001,E,-34.6092276891202,-58.4217452253939
BOEDO,02,035,010,02005010002,E,-34.6299600080664,-58.4188403738383
CABALLITO,02,042,010,02006010001,E,-34.6168254996915,-58.443603110353
FLORES,02,049,010,02007010001,E,-34.6368070795903,-58.4582698515258
PARQUE CHACABUCO,02,049,010,02007010002,E,-34.6359392274734,-58.4376956019926
VILLA LUGANO,02,056,010,02008010001,E,-34.6749935792889,-58.4761629844706
VILLA RIACHUELO,02,056,010,02008010002,E,-34.6918955269685,-58.4632519393435
VILLA SOLDATI,02,056,010,02008010003,E,-34.6654688444976,-58.4465225253229
LINIERS,02,063,010,02009010001,E,-34.6437960835294,-58.5191298958228
MATADEROS,02,063,010,02009010002,E,-34.6583682885816,-58.5017319521437
PARQUE AVELLANEDA,02,063,010,02009010003,E,-34.64864128675,-58.47645640345
FLORESTA,02,070,010,02010010001,E,-34.6276862905939,-58.4835872783595
MONTE CASTRO,02,070,010,02010010002,E,-34.6192974826904,-58.5065803391285
VELEZ SARSFIELD,02,070,010,02010010003,E,-34.6313610222,-58.493276996941
VERSALLES,02,070,010,02010010004,E,-34.6301234618064,-58.5224017483433
VILLA LURO,02,070,010,02010010005,E,-34.6364127783977,-58.5027288050931
VILLA REAL,02,070,010,02010010006,E,-34.6194831337073,-58.5259860729102
VILLA DEL PARQUE,02,077,010,02011010001,E,-34.6042463004493,-58.4906764324396
VILLA DEVOTO,02,077,010,02011010002,E,-34.6023803136553,-58.5142437101484
VILLA GENERAL MITRE,02,077,010,02011010003,E,-34.6100289507588,-58.4689425541216
VILLA SANTA RITA,02,077,010,02011010004,E,-34.6161936201559,-58.4829573518477
COGHLAN,02,084,010,02012010001,E,-34.5606251344745,-58.4749447458843
SAAVEDRA,02,084,010,02012010002,E,-34.553063289604,-58.4887266668384
VILLA PUEYRREDON,02,084,010,02012010003,E,-34.5821104495703,-58.5034848793052
VILLA URQUIZA,02,084,010,02012010004,E,-34.5715411303449,-58.4878560596649
BELGRANO,02,091,010,02013010001,E,-34.5548815240237,-58.4502890947349
COLEGIALES,02,091,010,02013010002,E,-34.5746427442082,-58.4509682045183
NUÑEZ,02,091,010,02013010003,E,-34.5437376606688,-58.4628575470422
PALERMO,02,098,010,02014010001,E,-34.5738999836423,-58.4224364523189
AGRONOMIA,02,105,010,02015010001,E,-34.5929442472726,-58.4886714155361
CHACARITA,02,105,010,02015010002,E,-34.5883730730472,-58.4541748568778
PARQUE CHAS,02,105,010,02015010003,E,-34.5855218978064,-58.4791226108546
PATERNAL,02,105,010,02015010004,E,-34.5974220425569,-58.4686652940674
VILLA CRESPO,02,105,010,02015010005,E,-34.5988344062647,-58.4427221412974
VILLA ORTUZAR,02,105,010,02015010006,E,-34.5809741138535,-58.4676516664339
CARHUE,06,007,010,06007010000,LS,-37.1774801030509,-62.7578962604015
COLONIA SAN MIGUEL ARCANGEL,06,007,020,06007020000,LS,-37.4486186469627,-63.117609405389
DELFIN HUERGO,06,007,030,06007030000,LS,-37.3173292631958,-63.2331690622102
ESPARTILLAR,06,007,040,06007040000,LC,-37.3563345638716,-62.4387637810214
ESTEBAN AGUSTIN GASCON,06,007,050,06007050000,LS,-37.4544378016288,-63.2565950033782
LA PALA,06,007,060,06007060000,LS,-36.6613400852941,-63.3661281675236
MAZA,06,007,070,06007070000,LS,-36.7999468137731,-63.3385151506224
RIVERA,06,007,080,06007080000,LS,-37.1583546113813,-63.2442194943605
VILLA MARGARITA,06,007,100,06007100000,LS,-37.4600992847959,-63.2405658599852
YUTUYACO,06,007,110,06007110000,LS,-36.9884309445004,-63.133808887439
ADOLFO GONZALES CHAVES,06,014,010,06014010000,LS,-38.0333995087596,-60.1003341740637
DE LA GARMA,06,014,020,06014020000,LS,-37.9635021758562,-60.415659383962
JUAN E. BARRA,06,014,030,06014030000,LS,-37.8233871716044,-60.484639770555
VASQUEZ,06,014,040,06014040000,LS,-38.1766861391835,-60.1708487303777
ALBERTI,06,021,010,06021010000,LS,-35.0330734347841,-60.2806197287099
CORONEL SEGUI,06,021,020,06021020000,LS,-34.8681189984321,-60.3939708823404
MECHITA,06,021,030,06021030000,LC,-35.068013673391,-60.4025971632697
PLA,06,021,040,06021040000,LS,-35.1243819752343,-60.2200612615259
VILLA GRISOLIA,06,021,050,06021050000,LS,-35.1096178332808,-60.070551324606
VILLA MARIA,06,021,060,06021060000,LS,-34.8881255447686,-60.3469385614883
VILLA ORTIZ,06,021,070,06021070000,LS,-34.8435329449862,-60.3048498633642
ADROGUE,06,028,010,06028010001,E,-34.8015580737331,-58.3914677191541
BURZACO,06,028,010,06028010002,E,-34.8315415891783,-58.3986874871405
CLAYPOLE,06,028,010,06028010003,E,-34.8044759080477,-58.3447825531042
DON ORIONE,06,028,010,06028010004,E,-34.8210751643113,-58.3447457989957
GLEW,06,028,010,06028010005,E,-34.8860114180413,-58.3818301842512
JOSE MARMOL,06,028,010,06028010006,E,-34.7851442510713,-58.3681475603787
LONGCHAMPS,06,028,010,06028010007,E,-34.8609450255718,-58.3891476922426
MALVINAS ARGENTINAS,06,028,010,06028010008,E,-34.8189583169642,-58.4235610606239
MINISTRO RIVADAVIA,06,028,010,06028010009,E,-34.8556895005541,-58.361646542791
RAFAEL CALZADA,06,028,010,06028010010,E,-34.7911367513318,-58.350598184222
SAN FRANCISCO SOLANO,06,028,010,06028010011,E,-34.7866743578473,-58.3219363521574
SAN JOSE,06,028,010,06028010012,E,-34.7673771924196,-58.3432771404358
AREA CINTURON ECOLOGICO,06,035,010,06035010001,E,-34.6750056478488,-58.3105634248142
AVELLANEDA,06,035,010,06035010002,E,-34.6626508059016,-58.3656990232718
CRUCESITA,06,035,010,06035010003,E,-34.66910587351,-58.3574544412345
DOCK SUD,06,035,010,06035010004,E,-34.6491266928534,-58.3411774769136
GERLI,06,035,010,06035010005,E,-34.6847637540553,-58.3726025503412
PIÑEYRO,06,035,010,06035010006,E,-34.6685497926645,-58.3886029123689
SARANDI,06,035,010,06035010007,E,-34.6843716640855,-58.348101313379
VILLA DOMINICO,06,035,010,06035010008,E,-34.6986315148924,-58.3363602646664
WILDE,06,035,010,06035010009,E,-34.7061588356333,-58.3218349208501
AYACUCHO,06,042,010,06042010000,LS,-37.1536695670417,-58.4895476662462
LA CONSTANCIA,06,042,020,06042020000,LS,-37.2286256057071,-58.7603890048806
SOLANET,06,042,030,06042030000,LS,-36.8444984439739,-58.5071421689017
UDAQUIOLA,06,042,040,06042040000,LS,-36.5637513540211,-58.5333344196536
ARIEL,06,049,010,06049010000,LS,-36.5312544192466,-59.9200651844348
AZUL,06,049,020,06049020000,LS,-36.7795144970313,-59.8586331707414
CACHARI,06,049,030,06049030000,LS,-36.3805626332947,-59.5030645507265
CHILLAR,06,049,040,06049040000,LS,-37.3150113247344,-59.9853181679139
16 DE JULIO,06,049,050,06049050000,LS,-37.2020524773603,-60.1652139181813
BAHIA BLANCA,06,056,010,06056010001,E,-38.7114037284555,-62.2569089501864
GRÜNBEIN,06,056,010,06056010002,E,-38.7471079502848,-62.1891166907456
INGENIERO WHITE,06,056,010,06056010003,E,-38.7794670416666,-62.262951248824
VILLA BORDEAU,06,056,010,06056010004,E,-38.6472605094596,-62.3200223419024
VILLA ESPORA,06,056,010,06056010005,E,-38.7765069529222,-62.1851833537179
CABILDO,06,056,020,06056020000,LS,-38.4838572081944,-61.8926015349487
GENERAL DANIEL CERRI,06,056,030,06056030000,LS,-38.7136524854986,-62.3924221653991
BALCARCE,06,063,010,06063010000,LS,-37.8482779294345,-58.2551665841248
LOS PINOS,06,063,020,06063020000,LS,-37.9412057603,-58.3225920150442
NAPALEOFU,06,063,030,06063030000,LS,-37.6254980210026,-58.7461862359423
RAMOS OTERO,06,063,040,06063040000,LS,-37.5426353712017,-58.3407185507274
SAN AGUSTIN,06,063,050,06063050000,LS,-38.0122838564587,-58.355377761682
VILLA LAGUNA LA BRAVA,06,063,060,06063060000,LS,-37.8596285282151,-57.9806008736401
BARADERO,06,070,010,06070010000,LS,-33.8128781547156,-59.5043068852807
IRINEO PORTELA,06,070,020,06070020000,LS,-33.9810489198561,-59.6715601606315
SANTA COLOMA,06,070,030,06070030000,LS,-34.062154134736,-59.5585420642846
VILLA ALSINA,06,070,040,06070040000,LS,-33.9096038045591,-59.3882017132282
ARRECIFES,06,077,010,06077010000,LS,-34.064591121211,-60.1025564443537
TODD,06,077,020,06077020000,LS,-34.0328240475348,-60.1562270065746
VIÑA,06,077,030,06077030000,LS,-33.9922765156087,-60.2263211205477
BARKER,06,084,010,06084010000,LS,-37.6424111302365,-59.3889380312927
BENITO JUAREZ,06,084,020,06084020000,LS,-37.6766410210105,-59.8057677109444
LOPEZ,06,084,030,06084030000,LS,-37.5545120854221,-59.6278461536299
TEDIN URIBURU,06,084,040,06084040000,LS,-37.3683686253208,-59.7630391604187
VILLA CACIQUE,06,084,050,06084050000,LS,-37.6704778893557,-59.4003533386514
BERAZATEGUI,06,091,010,06091010001,E,-34.7597493264937,-58.2019645234278
BERAZATEGUI OESTE,06,091,010,06091010002,E,-34.7804201858899,-58.2415010261207
CARLOS TOMAS SOURIGUES,06,091,010,06091010003,E,-34.8021192214631,-58.2188212494897
EL PATO,06,091,010,06091010004,E,-34.9067557072114,-58.1966995021239
GUILLERMO ENRIQUE HUDSON,06,091,010,06091010005,E,-34.7897594857633,-58.1439692638183
JUAN MARIA GUTIERREZ,06,091,010,06091010006,E,-34.8348420760566,-58.1819061125702
PEREYRA,06,091,010,06091010007,E,-34.8471945391094,-58.1392765205344
PLATANOS,06,091,010,06091010008,E,-34.7674201820877,-58.1652686003148
RANELAGH,06,091,010,06091010009,E,-34.7941468501172,-58.1989815634425
VILLA ESPAÑA,06,091,010,06091010010,E,-34.776063416904,-58.2002532983623
BARRIO BANCO PROVINCIA,06,098,010,06098010001,E,-34.8752589900973,-57.8550856662876
BARRIO EL CARMEN (ESTE),06,098,010,06098010002,E,-34.9293102150655,-57.8853552505795
BARRIO UNIVERSITARIO,06,098,010,06098010003,E,-34.9027528834433,-57.9270884333304
BERISSO,06,098,010,06098010004,E,-34.8746353679645,-57.8947472316799
LOS TALAS,06,098,010,06098010005,E,-34.9190209219847,-57.7909954962894
VILLA ARGÜELLO,06,098,010,06098010006,E,-34.9053981881099,-57.9180815078165
VILLA DOLORES,06,098,010,06098010007,E,-34.8802085383888,-57.8663036732616
VILLA INDEPENDENCIA,06,098,010,06098010008,E,-34.8829519743895,-57.8614892695719
VILLA NUEVA,06,098,010,06098010009,E,-34.8957079362353,-57.9108816644737
VILLA PORTEÑA,06,098,010,06098010010,E,-34.891043310448,-57.8963773978494
VILLA PROGRESO,06,098,010,06098010011,E,-34.9308766123633,-57.8468799885622
VILLA SAN CARLOS,06,098,010,06098010012,E,-34.8838130805,-57.87701595642
VILLA ZULA,06,098,010,06098010013,E,-34.9221646298322,-57.8009664840662
HALE,06,105,010,06105010000,LS,-36.0010429767568,-60.8534495072374
JUAN F. IBARRA,06,105,020,06105020000,LS,-36.3498770527922,-61.2552591224518
PAULA,06,105,040,06105040000,LS,-36.5053183545527,-61.0243287245345
PIROVANO,06,105,050,06105050000,LS,-36.5109170215402,-61.5545516558692
SAN CARLOS DE BOLIVAR,06,105,060,06105060000,LS,-36.2295602208798,-61.1131898679983
URDAMPILLETA,06,105,070,06105070000,LS,-36.4329292363695,-61.4191160192421
VILLA LYNCH PUEYRREDON,06,105,080,06105080000,LS,-36.6025793254646,-61.3618625494725
ASAMBLEA,06,112,005,06112005000,LS,-35.2267581272748,-60.4168952837295
BRAGADO,06,112,010,06112010000,LS,-35.118942299763,-60.4879147568209
COMODORO PY,06,112,020,06112020000,LS,-35.3233100374631,-60.5217314911689
GENERAL O'BRIEN,06,112,030,06112030000,LS,-34.9067979091956,-60.7597838238054
IRALA,06,112,040,06112040000,LS,-34.7718230311122,-60.6916912010278
LA LIMPIA,06,112,050,06112050000,LS,-35.0797272650156,-60.5928546665185
MAXIMO FERNANDEZ,06,112,060,06112060000,LS,-35.0615246745825,-60.7060741424473
MECHITA,06,112,070,06112070000,LC,-35.0699378566803,-60.4084937925362
OLASCOAGA,06,112,080,06112080000,LS,-35.2375277927366,-60.6115341696178
WARNES,06,112,090,06112090000,LS,-34.9098734445057,-60.5381681629003
ALTAMIRANO,06,119,010,06119010000,LS,-35.3615828022139,-58.1504868159157
BARRIO EL MIRADOR,06,119,015,06119015000,LS,-35.3145370547125,-58.0484420796345
BARRIO LAS GOLONDRINAS,06,119,020,06119020000,LS,-35.0335777783556,-58.1935382681817
BARRIO LOS BOSQUECITOS,06,119,030,06119030000,LS,-35.1050389949725,-58.1835007859607
BARRIO PARQUE LAS ACACIAS,06,119,040,06119040000,LS,-35.1030329461442,-58.2730405375653
CAMPOS DE ROCA,06,119,045,06119045000,LS,-35.1149772603157,-58.0953896541907
CORONEL BRANDSEN,06,119,050,06119050000,LS,-35.1690983002919,-58.2373529446643
CLUB DE CAMPO LAS MALVINAS,06,119,055,06119055000,LS,-35.2139978115731,-58.2433030920635
GOMEZ,06,119,060,06119060000,LS,-35.0693655332834,-58.1656899882306
JEPPENER,06,119,070,06119070000,LS,-35.2802043920968,-58.1996649431989
OLIDEN,06,119,080,06119080000,LS,-35.1842584334678,-57.9479623248001
POSADA DE LOS LAGOS,06,119,085,06119085000,LS,-35.1499383981993,-58.0504528667351
SAMBOROMBON,06,119,090,06119090000,LS,-35.2206242719966,-58.2805297949826
ALTO LOS CARDALES,06,126,010,06126010000,LC,-34.3160243688815,-58.9784574815339
BARRIO LOS PIONEROS,06,126,020,06126020000,LS,-34.2530406367633,-58.9584400368589
CAMPANA,06,126,030,06126030000,LS,-34.1639618118269,-58.9588741035355
CHACRAS DEL RIO LUJAN,06,126,035,06126035000,LC,-34.2934153226239,-58.921199044246
LOMAS DEL RIO LUJAN,06,126,040,06126040000,LC,-34.2816770641806,-58.8911906524052
ALEJANDRO PETION,06,134,010,06134010000,LS,-34.9793768508134,-58.6749430768989
BARRIO EL TALADRO,06,134,020,06134020000,LS,-35.0742486164225,-58.8632420603475
CAÑUELAS,06,134,030,06134030000,LS,-35.0527140350539,-58.7583856965375
GOBERNADOR UDAONDO,06,134,040,06134040000,LS,-35.3003271130454,-58.5943053657455
BARRIO BELGRANO,06,134,050,06134050001,E,-34.9022941561353,-58.6479010170021
MAXIMO PAZ,06,134,050,06134050002,E,-34.9364563092157,-58.6143957995956
SANTA ROSA,06,134,060,06134060000,LS,-34.9611839371811,-58.7308918275978
URIBELARREA,06,134,070,06134070000,LS,-35.1227364407356,-58.8904871463421
VICENTE CASARES,06,134,080,06134080000,LS,-34.9653526702416,-58.6504979594296
CAPITAN SARMIENTO,06,140,010,06140010000,LS,-34.1723674255219,-59.789349139091
LA LUISA,06,140,020,06140020000,LS,-34.1285572110784,-59.9240058312679
BELLOCQ,06,147,010,06147010000,LS,-35.9189705554631,-61.5312630222769
CADRET,06,147,020,06147020000,LS,-35.7727531397053,-61.3353879836968
CARLOS CASARES,06,147,030,06147030000,LS,-35.623543502046,-61.3653159121918
COLONIA MAURICIO,06,147,040,06147040000,LS,-35.5249595511909,-61.4378670824782
HORTENSIA,06,147,050,06147050000,LS,-35.9277092575349,-61.262290153739
LA SOFIA,06,147,060,06147060000,LS,-35.7003907357414,-61.1702865161871
MAURICIO HIRSCH,06,147,070,06147070000,LS,-35.583017649873,-61.5244457086778
MOCTEZUMA,06,147,080,06147080000,LS,-35.4774725641963,-61.4930734927677
ORDOQUI,06,147,090,06147090000,LS,-35.8831262095535,-61.1594280439031
SANTO TOMAS,06,147,095,06147095000,LS,-35.6740915009624,-61.5066664301675
SMITH,06,147,100,06147100000,LS,-35.4946290260766,-61.5937811081594
CARLOS TEJEDOR,06,154,010,06154010000,LS,-35.3925733302196,-62.4193023144118
COLONIA SERE,06,154,020,06154020000,LS,-35.4388157700903,-62.7252382146864
CURARU,06,154,030,06154030000,LS,-35.6403503028113,-62.1924372294866
TIMOTE,06,154,040,06154040000,LS,-35.3477615165229,-62.2246532791856
TRES ALGARROBOS,06,154,050,06154050000,LS,-35.1979815144911,-62.7730814064669
CARMEN DE ARECO,06,161,010,06161010000,LS,-34.3776987251735,-59.8229019801033
PUEBLO GOUIN,06,161,020,06161020000,LS,-34.4951191416005,-59.8029737383366
TRES SARGENTOS,06,161,030,06161030000,LS,-34.4664778301466,-60.0008697422009
CASTELLI,06,168,010,06168010000,LS,-36.091694119436,-57.8071801619355
CENTRO GUERRERO,06,168,020,06168020000,LS,-36.0570621940227,-57.8235422591576
CERRO DE LA GLORIA (CANAL 15),06,168,030,06168030000,LS,-35.9760530599951,-57.4487354447874
COLON,06,175,010,06175010000,LS,-33.8978633606345,-61.099560506382
EL ARBOLITO,06,175,020,06175020000,LC,-33.9147838019682,-60.9438081845998
PEARSON,06,175,030,06175030000,LS,-33.6518963027432,-60.8922239880462
SARASA,06,175,040,06175040000,LS,-34.0523353092344,-61.2019040914739
BAJO HONDO,06,182,010,06182010000,LS,-38.7648159927502,-61.9184051093309
BALNEARIO PEHUEN CO,06,182,020,06182020000,LS,-38.9961963948629,-61.5471990087107
PAGO CHICO,06,182,025,06182025000,LS,-38.7839402799391,-62.1195194756714
PUNTA ALTA,06,182,030,06182030001,E,-38.8823547797498,-62.0626706347168
VILLA DEL MAR,06,182,030,06182030002,E,-38.8532242630709,-62.1164752039925
VILLA GENERAL ARIAS,06,182,050,06182050000,LS,-38.8069001411051,-62.09498539538
APARICIO,06,189,010,06189010000,LS,-38.6204949120776,-60.8809603426407
BALNEARIO MARISOL,06,189,020,06189020000,LS,-38.9224906889726,-60.5329774471942
CORONEL DORREGO,06,189,030,06189030000,LS,-38.7166239148323,-61.2884948879698
EL PERDIDO,06,189,040,06189040000,LS,-38.6757752787604,-61.0884421797928
FARO,06,189,050,06189050000,LS,-38.7966781095909,-61.0688772134763
IRENE,06,189,060,06189060000,LS,-38.5543426342658,-60.6954938748393
ORIENTE,06,189,070,06189070000,LS,-38.7388491145692,-60.6092238150829
LA RUTA,06,189,075,06189075000,LS,-38.6534164106777,-60.8608557685895
SAN ROMAN,06,189,080,06189080000,LS,-38.7415550885108,-61.5377200112301
CORONEL PRINGLES,06,196,010,06196010000,LS,-37.9865210556901,-61.3540715661069
EL DIVISORIO,06,196,020,06196020000,LS,-38.3235636030787,-61.4450578127822
EL PENSAMIENTO,06,196,030,06196030000,LS,-38.2154094275446,-61.3145847771451
INDIO RICO,06,196,040,06196040000,LS,-38.3293770967784,-60.8866340266383
LARTIGAU,06,196,050,06196050000,LS,-38.44591903663,-61.566096860456
CASCADAS,06,203,010,06203010000,LS,-37.2899615825436,-62.2971682457111
CORONEL SUAREZ,06,203,020,06203020000,LS,-37.4596224938744,-61.9317530113989
CURA MALAL,06,203,030,06203030000,LS,-37.4843018699441,-62.10361959864
D'ORBIGNY,06,203,040,06203040000,LS,-37.6772293087783,-61.7052608546557
HUANGUELEN,06,203,050,06203050000,LS,-37.0622288209544,-61.9297529087938
PASMAN,06,203,060,06203060000,LS,-37.2234351404125,-62.1602259170472
SAN JOSE,06,203,070,06203070000,LS,-37.5077480260109,-61.9211473085303
SANTA MARIA,06,203,080,06203080000,LS,-37.5565856774998,-61.872634363442
SANTA TRINIDAD,06,203,090,06203090000,LS,-37.4891036510029,-61.9252761219778
VILLA LA ARCADIA,06,203,100,06203100000,LC,-38.1345025284944,-61.7885553500206
CASTILLA,06,210,010,06210010000,LS,-34.6131247014799,-59.9005194580559
CHACABUCO,06,210,020,06210020000,LS,-34.6429843999409,-60.4701843504346
LOS ANGELES,06,210,030,06210030000,LS,-34.4575064000002,-60.1801845132051
O'HIGGINS,06,210,040,06210040000,LS,-34.5854707868254,-60.6986325840689
RAWSON,06,210,050,06210050000,LS,-34.6086374337309,-60.0677106761007
BARRIO LOMAS ALTAS,06,217,003,06217003000,LS,-35.5739889229165,-58.0680436475186
CHASCOMUS,06,217,010,06217010001,E,-35.5743009068199,-58.0005532563664
BARRIO SAN CAYETANO,06,217,010,06217010003,E,-35.5466815668936,-58.0013258753826
LAGUNA VITEL,06,217,015,06217015000,LS,-35.5404169288645,-58.1349194201315
MANUEL J. COBO,06,217,020,06217020000,LS,-35.8748248734085,-57.8964226760932
VILLA PARQUE GIRADO,06,217,030,06217030000,LS,-35.6282696386352,-58.0145524400059
BENITEZ,06,224,005,06224005000,LC,-34.9660329017519,-60.1236385563996
CHIVILCOY,06,224,010,06224010000,LS,-34.8980163772726,-60.0188841030321
EMILIO AYARZA,06,224,020,06224020000,LS,-34.746060108407,-60.0392314192743
GOROSTIAGA,06,224,030,06224030000,LS,-34.839127302807,-59.8646671984292
LA RICA,06,224,040,06224040000,LS,-34.9739189538858,-59.8639302070489
MOQUEHUA,06,224,050,06224050000,LS,-35.0926582854313,-59.7745302971612
RAMON BIAUS,06,224,060,06224060000,LS,-35.0858455213162,-59.9236682591744
SAN SEBASTIAN,06,224,070,06224070000,LS,-34.9443783815263,-59.7018597369347
ANDANT,06,231,010,06231010000,LS,-36.5640579804658,-62.1324009778233
ARBOLEDAS,06,231,020,06231020000,LS,-36.8827708539235,-61.4878179060517
DAIREAUX,06,231,030,06231030000,LS,-36.6001749213746,-61.7450132654369
LA LARGA,06,231,040,06231040000,LS,-36.6749256386405,-61.9291952273289
SALAZAR,06,231,060,06231060000,LS,-36.307117163487,-62.2003365899
DOLORES,06,238,010,06238010000,LS,-36.3161215739926,-57.6752657333964
SEVIGNE,06,238,020,06238020000,LS,-36.2067284269712,-57.7413707296745
DIQUE N° 1,06,245,010,06245010001,E,-34.8758485548313,-57.9336298993983
ENSENADA,06,245,010,06245010002,E,-34.8679770208454,-57.9214379246659
ISLA SANTIAGO (OESTE),06,245,010,06245010003,E,-34.8370461990756,-57.8999620408998
PUNTA LARA,06,245,010,06245010004,E,-34.8346689394776,-58.0010481870988
VILLA CATELA,06,245,010,06245010005,E,-34.884600148052,-57.9511290255284
BELEN DE ESCOBAR,06,252,010,06252010001,E,-34.3516704130246,-58.7832526742638
EL CAZADOR,06,252,010,06252010002,E,-34.3034904902207,-58.7811274560113
GARIN,06,252,010,06252010003,E,-34.428785229178,-58.7361732596546
INGENIERO MASCHWITZ,06,252,010,06252010004,E,-34.3790006332322,-58.7303342412363
LOMA VERDE,06,252,010,06252010005,E,-34.3285234890863,-58.8506997728362
MATHEU,06,252,010,06252010006,E,-34.3688779666182,-58.8402291878847
MAQUINISTA F. SAVIO ESTE,06,252,010,06252010007,E,-34.3964888336318,-58.7629458829717
CANNING,06,260,010,06260010001,E,-34.8849791351051,-58.4778099372334
EL JAGÜEL,06,260,010,06260010002,E,-34.8304505041023,-58.494869419897
LUIS GUILLON,06,260,010,06260010003,E,-34.800196435999,-58.4530964052639
MONTE GRANDE,06,260,010,06260010004,E,-34.8191368630736,-58.4726947603508
9 DE ABRIL,06,260,010,06260010005,E,-34.7565075768115,-58.4902923509723
ARROYO DE LA CRUZ,06,266,010,06266010000,LS,-34.3363786908945,-59.1094149717708
CAPILLA DEL SEÑOR,06,266,020,06266020000,LS,-34.2912108668035,-59.1015232724441
DIEGO GAYNOR,06,266,030,06266030000,LS,-34.288973975279,-59.222781222713
LOS CARDALES,06,266,040,06266040000,LC,-34.3300736993853,-58.9885651588167
PARADA ORLANDO,06,266,050,06266050000,LS,-34.3273003551547,-59.0759905460338
EL REMANSO,06,266,060,06266060001,E,-34.4149477393736,-59.086281182388
PARADA ROBLES,06,266,060,06266060002,E,-34.3736266959435,-59.139354021597
PAVON,06,266,060,06266060003,E,-34.3581118951493,-59.0310010709452
AEROPUERTO INTERNACIONAL EZEIZA,06,270,010,06270010001,E,-34.8128216283518,-58.5521650062885
CANNING,06,270,010,06270010002,E,-34.8962283957338,-58.5087006002723
CARLOS SPEGAZZINI,06,270,010,06270010003,E,-34.9338489869515,-58.5780017334776
JOSE MARIA EZEIZA,06,270,010,06270010004,E,-34.8536100103068,-58.5195521653909
LA UNION,06,270,010,06270010005,E,-34.8503859677023,-58.5558695462288
TRISTAN SUAREZ,06,270,010,06270010006,E,-34.8851527149847,-58.5700335845498
BOSQUES,06,274,010,06274010001,E,-34.827580702831,-58.2229120039487
ESTANISLAO SEVERO ZEBALLOS,06,274,010,06274010002,E,-34.812285887223,-58.2426532633495
FLORENCIO VARELA,06,274,010,06274010003,E,-34.7960544308506,-58.2748588953342
GOBERNADOR JULIO A. COSTA,06,274,010,06274010004,E,-34.8152397261388,-58.3082334245906
INGENIERO JUAN ALLAN,06,274,010,06274010005,E,-34.8648075260046,-58.2110437322304
VILLA BROWN,06,274,010,06274010006,E,-34.8790424725562,-58.2898092496787
VILLA SAN LUIS,06,274,010,06274010007,E,-34.8627929258513,-58.2553232274346
VILLA SANTA ROSA,06,274,010,06274010008,E,-34.8380276482598,-58.2888899071764
VILLA VATTEONE,06,274,010,06274010009,E,-34.8303193176345,-58.2635239901185
EL TROPEZON,06,274,010,06274010010,E,-34.9564048574127,-58.2787454299742
LA CAPILLA,06,274,010,06274010011,E,-34.9437330109546,-58.2632550914348
BLAQUIER,06,277,010,06277010000,LS,-34.6356616332748,-62.4786821321875
FLORENTINO AMEGHINO,06,277,020,06277020000,LS,-34.846677699169,-62.4671575805384
PORVENIR,06,277,030,06277030000,LS,-34.9522292183733,-62.2174229886622
CENTINELA DEL MAR,06,280,005,06280005000,LS,-38.4348806367321,-58.216863731472
COMANDANTE NICANOR OTAMENDI,06,280,010,06280010000,LS,-38.1119335118514,-57.8415353121543
MAR DEL SUR,06,280,020,06280020000,LS,-38.3446881533109,-57.9920393065731
MECHONGUE,06,280,030,06280030000,LS,-38.1486545138318,-58.2230121065801
MIRAMAR,06,280,040,06280040000,LC,-38.2707429318083,-57.8404714577536
GENERAL ALVEAR,06,287,010,06287010000,LS,-36.0229384341367,-60.0147935726886
ARRIBEÑOS,06,294,010,06294010000,LS,-34.2101542565966,-61.3548577979495
ASCENSION,06,294,020,06294020000,LS,-34.2368758979793,-61.103613881133
ESTACION ARENALES,06,294,030,06294030000,LS,-34.2698455922697,-61.2926718130401
FERRE,06,294,040,06294040000,LS,-34.1250383813873,-61.132654886464
GENERAL ARENALES,06,294,050,06294050000,LS,-34.3044679711077,-61.3056277788216
LA ANGELITA,06,294,060,06294060000,LS,-34.2608740726731,-60.9685988224111
LA TRINIDAD,06,294,070,06294070000,LS,-34.1068549430168,-61.1317020714357
GENERAL BELGRANO,06,301,010,06301010000,LS,-35.7694577358026,-58.4944615102033
GORCHS,06,301,020,06301020000,LS,-35.6733729629116,-58.9582999568816
GENERAL GUIDO,06,308,010,06308010000,LS,-36.6431651777017,-57.7905019037041
LABARDEN,06,308,020,06308020000,LS,-36.9489668508723,-58.1035671819428
BARRIO KENNEDY,06,315,010,06315010001,E,-37.0062217702401,-57.1417255856769
GENERAL JUAN MADARIAGA,06,315,010,06315010002,E,-36.9967730012079,-57.1374769071298
GENERAL LA MADRID,06,322,010,06322010000,LS,-37.2503992475804,-61.2595794125711
LA COLINA,06,322,020,06322020000,LS,-37.3607690235166,-61.5348487870647
LAS MARTINETAS,06,322,030,06322030000,LS,-37.1980813542863,-61.1220424031557
LIBANO,06,322,040,06322040000,LS,-37.53362138441,-61.2865750087495
PONTAUT,06,322,050,06322050000,LS,-37.731769903374,-61.3230957170244
GENERAL HORNOS,06,329,010,06329010000,LS,-34.8937763345299,-58.9172215319327
GENERAL LAS HERAS,06,329,020,06329020000,LS,-34.9267739074255,-58.9453407851291
LA CHOZA,06,329,030,06329030000,LS,-34.7829908276155,-59.1095647693247
PLOMER,06,329,050,06329050000,LS,-34.7941193667757,-59.0279756935744
VILLARS,06,329,060,06329060000,LS,-34.8300241949658,-58.9422589402025
GENERAL LAVALLE,06,336,020,06336020000,LS,-36.4080851872455,-56.9433553335054
PAVON,06,336,030,06336030000,LS,-36.7089537726649,-56.7598433617574
BARRIO RIO SALADO,06,343,010,06343010000,LS,-35.6936377582584,-58.447313612508
LOMA VERDE,06,343,020,06343020000,LS,-35.2747490125694,-58.4041701894263
RANCHOS,06,343,030,06343030000,LS,-35.5173520233652,-58.3184247148653
VILLANUEVA,06,343,040,06343040000,LS,-35.6776271050909,-58.4350923167562
COLONIA SAN RICARDO,06,351,010,06351010000,LS,-34.4162137301573,-61.9280141749282
GENERAL PINTO,06,351,020,06351020000,LS,-34.764155990724,-61.8900674920122
GERMANIA,06,351,030,06351030000,LS,-34.576111833277,-62.0518306894073
GUNTHER,06,351,035,06351035000,LS,-34.5994995308259,-61.9164989081536
VILLA FRANCIA,06,351,040,06351040000,LS,-34.7913160212074,-62.2011090686366
VILLA ROTH,06,351,050,06351050000,LS,-34.5798302278832,-62.1710489234118
BARRIO EL BOQUERON,06,357,020,06357020000,LS,-38.0297229162982,-57.7995485049706
BARRIO LA GLORIA,06,357,050,06357050000,LS,-37.9068268303117,-57.7858860640391
BARRIO SANTA  PAULA,06,357,060,06357060000,LS,-37.9317157840639,-57.683162032898
BATAN,06,357,070,06357070000,LS,-38.0086211557001,-57.7085500402678
CHAPADMALAL,06,357,080,06357080000,LS,-38.1757779275595,-57.6513390003209
EL MARQUESADO,06,357,090,06357090000,LC,-38.2369312519788,-57.763418077922
ESTACION CHAPADMALAL,06,357,100,06357100000,LS,-38.036727731373,-57.7129897398616
CAMET,06,357,110,06357110001,E,-37.9130763908367,-57.552463851894
ESTACION CAMET,06,357,110,06357110002,E,-37.888665236683,-57.6000121501773
MAR DEL PLATA,06,357,110,06357110003,E,-38.0120914785136,-57.6064947153173
PUNTA MOGOTES,06,357,110,06357110004,E,-38.0833774287933,-57.5859350936487
BARRIO EL CASAL,06,357,110,06357110005,E,-37.8324145231571,-57.6311155465986
BARRIO COLINAS VERDES,06,357,120,06357120001,E,-37.8931024789245,-57.8261645643114
BARRIO EL COYUNCO,06,357,120,06357120002,E,-37.9050810135269,-57.7391824086455
SIERRA DE LOS PADRES,06,357,120,06357120004,E,-37.9504850690528,-57.7774696627876
BARRIO RUTA 24 KILOMETRO 10,06,364,010,06364010000,LS,-34.6882159472973,-58.9574297137089
BARRIO MORABO,06,364,030,06364030001,E,-34.5497197440161,-58.9467785534585
BARRIO RUTA 24 KM. 10,06,364,030,06364030002,E,-34.6764462958288,-58.9704188625706
C.C. BOSQUE REAL,06,364,030,06364030003,E,-34.5601388485008,-58.9182614196703
GENERAL RODRGUEZ,06,364,030,06364030004,E,-34.6278603432415,-58.9532533538878
BARRIO PARQUE GENERAL SAN MARTIN,06,371,010,06371010001,E,-34.5673433766504,-58.5843112459936
BILLINGHURST,06,371,010,06371010002,E,-34.5751071711249,-58.5745828938046
CIUDAD DEL LIBERTADOR GENERAL SAN MARTIN,06,371,010,06371010003,E,-34.5796986848297,-58.5420144816587
CIUDAD JARDIN EL LIBERTADOR,06,371,010,06371010004,E,-34.5416520781805,-58.5959093634496
VILLA AYACUCHO,06,371,010,06371010005,E,-34.5904132636755,-58.5530430923958
VILLA BALLESTER,06,371,010,06371010006,E,-34.5422846822324,-58.5583177179822
VILLA BERNARDO MONTEAGUDO,06,371,010,06371010007,E,-34.5905899097986,-58.5396606594168
VILLA CHACABUCO,06,371,010,06371010008,E,-34.5796744853293,-58.523036970803
VILLA CORONEL JOSE M. ZAPIOLA,06,371,010,06371010009,E,-34.5595169115142,-58.5772769308184
VILLA GENERAL ANTONIO J. DE SUCRE,06,371,010,06371010010,E,-34.5470506011052,-58.5694391894093
VILLA GENERAL EUGENIO NECOCHEA,06,371,010,06371010011,E,-34.51253320696,-58.5801478288493
VILLA GENERAL JOSE TOMAS GUIDO,06,371,010,06371010012,E,-34.553116323608,-58.5669976603922
VILLA GENERAL JUAN G. LAS HERAS,06,371,010,06371010013,E,-34.5612567076697,-58.5553936643491
VILLA GODOY CRUZ,06,371,010,06371010014,E,-34.5433989252454,-58.5755928423118
VILLA GRANADEROS DE SAN MARTIN,06,371,010,06371010015,E,-34.5507646909435,-58.5284854572959
VILLA GREGORIA MATORRAS,06,371,010,06371010016,E,-34.5383846467918,-58.5491721010066
VILLA JOSE LEON SUAREZ,06,371,010,06371010017,E,-34.5253711653351,-58.5802550661988
VILLA JUAN MARTIN DE PUEYRREDON,06,371,010,06371010018,E,-34.5474839124216,-58.5750972559389
VILLA LIBERTAD,06,371,010,06371010019,E,-34.5846960052521,-58.5623334028073
VILLA LYNCH,06,371,010,06371010020,E,-34.590146441043,-58.5234377223288
VILLA MAIPU,06,371,010,06371010021,E,-34.5682131696117,-58.5245451491949
VILLA MARIA IRENE DE LOS REMEDIOS DE ESCALADA,06,371,010,06371010022,E,-34.5646397095177,-58.5922548425316
VILLA MARQUES ALEJANDRO MARIA DE AGUADO,06,371,010,06371010023,E,-34.5551356608044,-58.5383771255925
VILLA PARQUE PRESIDENTE FIGUEROA ALCORTA,06,371,010,06371010024,E,-34.5939487574993,-58.5321739553925
VILLA PARQUE SAN LORENZO,06,371,010,06371010025,E,-34.5618730613851,-58.5336624494541
VILLA SAN ANDRES,06,371,010,06371010026,E,-34.5659932905453,-58.5448069225448
VILLA YAPEYU,06,371,010,06371010027,E,-34.5716953020123,-58.5491073994839
BAIGORRITA,06,385,010,06385010000,LS,-34.7472686783062,-60.9889526585307
LA DELFINA,06,385,020,06385020000,LS,-34.9437720137007,-61.1588643543904
LOS TOLDOS,06,385,030,06385030000,LS,-35.0010365651503,-61.0381497866181
SAN EMILIO,06,385,040,06385040000,LS,-35.0319914044113,-60.8647685857183
ZAVALIA,06,385,050,06385050000,LS,-34.8949208760254,-61.0044538243489
BANDERALO,06,392,010,06392010000,LS,-35.0124666610174,-63.3741563457186
CAÑADA SECA,06,392,020,06392020000,LS,-34.4155054560621,-62.9618553806295
CORONEL CHARLONE,06,392,030,06392030000,LS,-34.672994561958,-63.3724454840572
EMILIO V. BUNGE,06,392,040,06392040000,LS,-34.7798328261907,-63.1960964862342
GENERAL VILLEGAS,06,392,050,06392050000,LS,-35.0338419886306,-63.0146637107531
MASSEY,06,392,060,06392060000,LS,-35.0490892294374,-63.1218876844046
PICHINCHA,06,392,070,06392070000,LS,-34.5804516676438,-62.3516395240412
PIEDRITAS,06,392,080,06392080000,LS,-34.771104540922,-62.9846965760316
SANTA ELEODORA,06,392,090,06392090000,LS,-34.6921180067125,-62.6957932681386
SANTA REGINA,06,392,100,06392100000,LS,-34.548335663977,-63.1732728724567
VILLA SABOYA,06,392,110,06392110000,LS,-34.4607916334895,-62.649344456796
VILLA SAUZE,06,392,120,06392120000,LS,-35.2858298200472,-63.3682055476167
ARROYO VENADO,06,399,010,06399010000,LS,-37.0864662845331,-62.5391482291111
CASBAS,06,399,020,06399020000,LS,-36.7580953396186,-62.5017754084549
GARRE,06,399,030,06399030000,LS,-36.5604378772819,-62.5981120377825
GUAMINI,06,399,040,06399040000,LS,-37.0120881308673,-62.4166857296556
LAGUNA ALSINA,06,399,050,06399050000,LS,-36.80905243808,-62.2451480754422
HENDERSON,06,406,010,06406010000,LS,-36.2994630370091,-61.7178401805261
HERRERA VEGAS,06,406,020,06406020000,LS,-36.0883254041477,-61.4112500767203
HURLINGHAM,06,408,010,06408010001,E,-34.5930931356257,-58.6357209509749
VILLA SANTOS TESEI,06,408,010,06408010002,E,-34.6123944448227,-58.6538103691925
WILLIAM C. MORRIS,06,408,010,06408010003,E,-34.5815622830288,-58.6583005365543
ITUZAINGO CENTRO,06,410,010,06410010001,E,-34.6440551161203,-58.688489332955
ITUZAINGO SUR,06,410,010,06410010002,E,-34.6699430265699,-58.6733044157835
VILLA GOBERNADOR UDAONDO,06,410,010,06410010003,E,-34.6168695808944,-58.693287500009
DEL VISO,06,412,010,06412010001,E,-34.480495794913,-58.8042588983994
JOSE C. PAZ,06,412,010,06412010002,E,-34.5211611965464,-58.770881112578
TORTUGUITAS,06,412,010,06412010003,E,-34.4918483987206,-58.7863780316191
AGUSTIN ROCA,06,413,010,06413010000,LS,-34.508084406003,-60.8648956546314
AGUSTINA,06,413,020,06413020000,LS,-34.4607068571169,-61.067072329925
BALNEARIO LAGUNA DE GOMEZ,06,413,030,06413030000,LS,-34.6606435780718,-61.0183645929666
FORTIN TIBURCIO,06,413,040,06413040000,LS,-34.3467322372427,-61.1310781728463
JUNIN,06,413,050,06413050000,LS,-34.5838316271397,-60.9472651715327
LA AGRARIA,06,413,055,06413055000,LS,-34.6564145153102,-60.8466681579607
LAPLACETTE,06,413,060,06413060000,LS,-34.7245238530675,-61.1553171474145
MORSE,06,413,070,06413070000,LS,-34.7608898130707,-60.8419122487126
SAFORCADA,06,413,080,06413080000,LS,-34.5752591285936,-61.0747308195452
LAS TONINAS,06,420,010,06420010000,LS,-36.4883976285615,-56.7004352579533
AGUAS VERDES,06,420,020,06420020001,E,-36.6552111489067,-56.6949520678334
LUCILA DEL MAR,06,420,020,06420020002,E,-36.6627491358367,-56.6817136067571
MAR DE AJO,06,420,020,06420020003,E,-36.7468693750233,-56.6852641972249
MAR DE AJO NORTE,06,420,020,06420020004,E,-36.7065977594674,-56.6904987226994
SAN BERNARDO,06,420,020,06420020005,E,-36.6874110140403,-56.6841400639982
SAN CLEMENTE DEL TUYU,06,420,030,06420030000,LS,-36.3532388310754,-56.723944139417
MAR DEL TUYU,06,420,040,06420040001,E,-36.5861168542894,-56.6990062189009
SANTA TERESITA,06,420,040,06420040002,E,-36.5409111808415,-56.705867443875
ALDO BONZI,06,427,010,06427010001,E,-34.7141728890679,-58.5089043765674
CIUDAD EVITA,06,427,010,06427010002,E,-34.7245358500775,-58.5370063768546
GONZALEZ CATAN,06,427,010,06427010003,E,-34.7724652485211,-58.6404861634561
GREGORIO DE LAFERRERE,06,427,010,06427010004,E,-34.7468379962284,-58.5925328858169
ISIDRO CASANOVA,06,427,010,06427010005,E,-34.7184291570686,-58.577751528605
LA TABLADA,06,427,010,06427010006,E,-34.6870536689657,-58.5256123986254
LOMAS DEL MIRADOR,06,427,010,06427010007,E,-34.6656949723622,-58.5331553311677
RAFAEL CASTILLO,06,427,010,06427010008,E,-34.7132054583486,-58.6258365121679
RAMOS MEJIA,06,427,010,06427010009,E,-34.6523081823718,-58.5592114732944
SAN JUSTO,06,427,010,06427010010,E,-34.6881604248706,-58.5626785715398
TAPIALES,06,427,010,06427010011,E,-34.7108317770604,-58.495008488146
20 DE JUNIO,06,427,010,06427010012,E,-34.7855336508384,-58.7171850019077
VILLA EDUARDO MADERO,06,427,010,06427010013,E,-34.6981156880684,-58.4877575961419
VILLA LUZURIAGA,06,427,010,06427010014,E,-34.6730866446433,-58.5938792359541
VIRREY DEL PINO,06,427,010,06427010015,E,-34.8475213469043,-58.686067635918
GERLI,06,434,010,06434010001,E,-34.6909571502715,-58.3838628492162
LANUS ESTE,06,434,010,06434010002,E,-34.7108609216651,-58.3725047463731
LANUS OESTE,06,434,010,06434010003,E,-34.6957815314992,-58.416253274019
MONTE CHINGOLO,06,434,010,06434010004,E,-34.7302098940207,-58.3561741850066
REMEDIOS ESCALADA DE SAN MARTIN,06,434,010,06434010005,E,-34.723808815713,-58.397669711018
VALENTIN ALSINA,06,434,010,06434010006,E,-34.672035526127,-58.4134851675076
COUNTRY CLUB EL RODEO,06,441,010,06441010000,LS,-35.0794688053886,-58.1393275732941
IGNACIO CORREAS,06,441,020,06441020000,LS,-35.0345600341406,-57.8440249586726
ABASTO,06,441,030,06441030001,E,-35.0103681960184,-58.1151848585184
ANGEL ETCHEVERRY,06,441,030,06441030002,E,-35.0261580911328,-58.0959060056615
ARANA,06,441,030,06441030003,E,-35.0300556104917,-57.8865250010855
ARTURO SEGUI,06,441,030,06441030004,E,-34.8907397135389,-58.132711650613
BARRIO EL CARMEN (OESTE),06,441,030,06441030005,E,-34.9707544223488,-57.8108950283044
BARRIO GAMBIER,06,441,030,06441030006,E,-34.9359594527479,-57.9837630521994
BARRIO LAS MALVINAS,06,441,030,06441030007,E,-34.9374880163466,-58.0093954169858
BARRIO LAS QUINTAS,06,441,030,06441030008,E,-34.9257210987549,-58.0393403036748
CITY BELL,06,441,030,06441030009,E,-34.8879382744371,-58.0582328038691
EL RETIRO,06,441,030,06441030010,E,-34.9476175562489,-57.9957432212034
JOAQUIN GORINA,06,441,030,06441030011,E,-34.9017817335757,-58.039185928571
JOSE HERNANDEZ,06,441,030,06441030012,E,-34.8985896635727,-58.0143972026636
JOSE MELCHOR ROMERO,06,441,030,06441030013,E,-34.9455092438623,-58.0362904746611
LA CUMBRE,06,441,030,06441030014,E,-34.9235917717359,-58.0019478733944
LA PLATA,06,441,030,06441030015,E,-34.920863104693,-57.9540560062469
LISANDRO OLMOS,06,441,030,06441030016,E,-34.9976086009747,-58.043377425691
LOS HORNOS,06,441,030,06441030017,E,-34.973715513981,-57.9850539062724
MANUEL B. GONNET,06,441,030,06441030018,E,-34.8819511933447,-58.0189915342036
RINGUELET,06,441,030,06441030019,E,-34.8910544941568,-57.9913781921596
RUFINO DE ELIZALDE,06,441,030,06441030020,E,-34.9710900774179,-57.9524351288235
TOLOSA,06,441,030,06441030021,E,-34.9007699307169,-57.9821293495972
TRANSRADIO,06,441,030,06441030022,E,-34.8790055541958,-58.081733864461
VILLA ELISA,06,441,030,06441030023,E,-34.8776205187118,-58.0907139194439
VILLA ELVIRA,06,441,030,06441030024,E,-34.9406437624757,-57.9214984675578
VILLA GARIBALDI,06,441,030,06441030025,E,-34.9986517196678,-57.8404966243711
VILLA MONTORO,06,441,030,06441030026,E,-34.9634490535296,-57.9025001308298
VILLA PARQUE SICARDI,06,441,030,06441030027,E,-34.9830288461923,-57.8674653074052
LOMAS DE COPELLO,06,441,040,06441040000,LS,-34.9520385659845,-57.8409385980167
BARRIO RUTA SOL,06,441,050,06441050000,LC,-34.9437333541431,-58.1732652389706
LAPRIDA,06,448,010,06448010000,LS,-37.5467976434903,-60.7970535965801
PUEBLO NUEVO,06,448,020,06448020000,LS,-37.3263227,-60.9098409
PUEBLO SAN JORGE,06,448,030,06448030000,LS,-37.2298626892886,-60.9621658450441
CORONEL BOERR,06,455,010,06455010000,LS,-35.9414440334215,-59.0693547287839
EL TRIGO,06,455,020,06455020000,LS,-35.8815483511482,-59.4063369903389
LAS FLORES,06,455,030,06455030000,LS,-36.0154969145348,-59.1004659218434
PARDO,06,455,040,06455040000,LS,-36.2437580460508,-59.3662916338311
ALBERDI VIEJO,06,462,010,06462010000,LS,-34.4418003349,-61.8448787838164
EL DORADO,06,462,020,06462020000,LS,-34.6528608747523,-61.5829085058874
FORTIN ACHA,06,462,030,06462030000,LS,-34.3430420274499,-61.5156655267073
JUAN BAUTISTA ALBERDI,06,462,040,06462040000,LS,-34.4387919326349,-61.8121893821736
LEANDRO N. ALEM,06,462,050,06462050000,LS,-34.5217246234597,-61.391182899484
VEDIA,06,462,060,06462060000,LS,-34.4973984349932,-61.5453447631479
ARENAZA,06,469,010,06469010000,LS,-34.9846043002155,-61.7729116988591
BAYAUCA,06,469,020,06469020000,LS,-34.8710511337121,-61.2895451446375
BERMUDEZ,06,469,030,06469030000,LS,-34.6966047108596,-61.3250128810539
CARLOS SALAS,06,469,040,06469040000,LS,-35.3913662871435,-61.9949102331933
CORONEL MARTINEZ DE HOZ,06,469,050,06469050000,LS,-35.3321817215807,-61.6140851684372
EL TRIUNFO,06,469,060,06469060000,LS,-35.0882210775847,-61.5163333232822
LAS TOSCAS,06,469,070,06469070000,LS,-35.3649873001768,-61.8055485519284
LINCOLN,06,469,080,06469080000,LS,-34.869042222818,-61.5291649669285
PASTEUR,06,469,090,06469090000,LS,-35.1426386337075,-62.2439028944602
ROBERTS,06,469,100,06469100000,LS,-35.1440875676884,-61.9707859541264
TRIUNVIRATO,06,469,110,06469110000,LC,-34.6758379792473,-61.4657087059048
ARENAS VERDES,06,476,010,06476010000,LS,-38.5463782386967,-58.557322112625
LICENCIADO MATIENZO,06,476,020,06476020000,LS,-37.9097927118145,-58.9120965943062
LOBERIA,06,476,030,06476030000,LS,-38.165273387122,-58.7822303314999
PIERES,06,476,040,06476040000,LS,-38.3962306181995,-58.670580006548
SAN MANUEL,06,476,050,06476050000,LS,-37.7892829007834,-58.8486476710495
TAMANGUEYU,06,476,060,06476060000,LS,-38.2010112434137,-58.7373143964601
ANTONIO CARBONI,06,483,010,06483010000,LS,-35.2033088915799,-59.3449562581802
ELVIRA,06,483,020,06483020000,LS,-35.243272141682,-59.4860397931491
LAGUNA DE LOBOS,06,483,030,06483030000,LS,-35.2747624905943,-59.1339060011927
LOBOS,06,483,040,06483040000,LS,-35.1858677983922,-59.0957115706922
SALVADOR MARIA,06,483,050,06483050000,LS,-35.3028071422894,-59.1696841440203
BANFIELD,06,490,010,06490010001,E,-34.7379027155314,-58.440675368556
LLAVALLOL,06,490,010,06490010002,E,-34.7946182344111,-58.4320908524909
LOMAS DE ZAMORA,06,490,010,06490010003,E,-34.7627676410061,-58.4267903899666
TEMPERLEY,06,490,010,06490010004,E,-34.767486625425,-58.3780461337408
TURDERA,06,490,010,06490010005,E,-34.789560716095,-58.4041056486523
VILLA CENTENARIO,06,490,010,06490010006,E,-34.7289932955803,-58.4283436419093
VILLA FIORITO,06,490,010,06490010007,E,-34.7067104032516,-58.4451304500011
CARLOS KEEN,06,497,020,06497020000,LS,-34.4862819813638,-59.2180861330698
CLUB DE CAMPO LOS PUENTES,06,497,025,06497025000,LS,-34.5760126891975,-59.0214105976263
BARRIO LAS CASUARINAS,06,497,060,06497060001,E,-34.5607457195455,-59.1700837097016
CORTINES,06,497,060,06497060002,E,-34.5590633814317,-59.2044266157478
LEZICA Y TORREZURI,06,497,060,06497060003,E,-34.5806997364467,-59.0582308683017
LUJAN,06,497,060,06497060004,E,-34.5646845021423,-59.1320945387741
VILLA FLANDRIA NORTE (PUEBLO NUEVO),06,497,060,06497060005,E,-34.570714539607,-59.1826103383073
VILLA FLANDRIA SUR (EST. JAUREGUI),06,497,060,06497060006,E,-34.5993969541802,-59.1757636437956
COUNTRY CLUB LAS PRADERAS,06,497,060,06497060007,E,-34.4902656696955,-59.1324863072423
OPEN DOOR,06,497,060,06497060008,E,-34.4890162386569,-59.0617361279716
OLIVERA,06,497,070,06497070000,LS,-34.6265041710141,-59.2533805145177
TORRES,06,497,090,06497090000,LS,-34.4318215080317,-59.1287739002816
ATALAYA,06,505,010,06505010000,LS,-35.0240363457416,-57.5340253600961
GENERAL MANSILLA,06,505,020,06505020000,LS,-35.0816834306862,-57.7469762592144
LOS NARANJOS,06,505,030,06505030000,LS,-34.99655185849,-57.7036642458572
MAGDALENA,06,505,040,06505040000,LS,-35.0806853032506,-57.5172585839912
ROBERTO J. PAYRO,06,505,050,06505050000,LS,-35.1799267057869,-57.651986019808
VIEYTES,06,505,060,06505060000,LS,-35.269568396303,-57.5757117447539
LAS ARMAS,06,511,010,06511010000,LS,-37.0860540989,-57.8285752273883
MAIPU,06,511,020,06511020000,LS,-36.8648514645038,-57.8829166198472
SANTO DOMINGO,06,511,030,06511030000,LS,-36.7137597811284,-57.5860126519926
AREA DE PROMOCION EL TRIANGULO,06,515,010,06515010001,E,-34.4544550576034,-58.7062417407487
GRAND BOURG,06,515,010,06515010002,E,-34.4869935800875,-58.7286750953502
INGENIERO ADOLFO SOURDEAUX,06,515,010,06515010003,E,-34.5004325972609,-58.6618050648717
INGENIERO PABLO NOGUES,06,515,010,06515010004,E,-34.4790933125467,-58.6989741628196
LOS POLVORINES,06,515,010,06515010005,E,-34.5078746726212,-58.7013439131882
TORTUGUITAS,06,515,010,06515010007,E,-34.4746661471823,-58.7513344097631
VILLA DE MAYO,06,515,010,06515010008,E,-34.5061507591135,-58.6793063506777
CORONEL VIDAL,06,518,010,06518010000,LS,-37.452214188593,-57.7299500229319
GENERAL PIRAN,06,518,020,06518020000,LS,-37.2778606745914,-57.7740148170475
LA ARMONIA,06,518,030,06518030000,LS,-37.774854850113,-57.6351210747907
MAR CHIQUITA,06,518,040,06518040000,LS,-37.7462581727647,-57.4274479339348
LA BALIZA,06,518,050,06518050001,E,-37.7697388275396,-57.450820092514
LA CALETA,06,518,050,06518050002,E,-37.7834384978567,-57.4647863685704
MAR DE COBO,06,518,050,06518050003,E,-37.7768000427976,-57.455658983424
ATLANTIDA,06,518,060,06518060001,E,-37.8505519250944,-57.5134595632837
CAMET NORTE,06,518,060,06518060002,E,-37.8224325083139,-57.4974692762018
FRENTE MAR,06,518,060,06518060003,E,-37.857770246553,-57.5154242437478
PLAYA DORADA,06,518,060,06518060004,E,-37.8730952780707,-57.5218898754931
SANTA CLARA DEL MAR,06,518,060,06518060005,E,-37.834833606977,-57.5079487213859
SANTA ELENA,06,518,060,06518060006,E,-37.8649003626945,-57.5169016362882
VIVORATA,06,518,070,06518070000,LS,-37.6627994476991,-57.6670967441538
BARRIO SANTA ROSA,06,525,010,06525010000,LS,-34.953080822173,-58.78292863718
BARRIOS LISANDRO DE LA TORRE Y SANTA MARTA,06,525,020,06525020001,E,-34.854330073065,-58.7844436414942
MARCOS PAZ,06,525,020,06525020002,E,-34.7965436888808,-58.8778211205753
GOLDNEY,06,532,005,06532005000,LS,-34.6029546709308,-59.288213732192
GOWLAND,06,532,010,06532010000,LS,-34.652429281715,-59.3523186300108
MERCEDES,06,532,020,06532020000,LS,-34.6521715354886,-59.4295981722689
TOMAS JOFRE,06,532,030,06532030000,LS,-34.698955554941,-59.3194428313109
LIBERTAD,06,539,010,06539010001,E,-34.7085422423529,-58.6795867252566
MARIANO ACOSTA,06,539,010,06539010002,E,-34.7154808073462,-58.7976740413845
MERLO,06,539,010,06539010003,E,-34.6823277014068,-58.7436432079669
PONTEVEDRA,06,539,010,06539010004,E,-34.7467959489481,-58.7060431536772
SAN ANTONIO DE PADUA,06,539,010,06539010005,E,-34.6698581359268,-58.697930436646
ABBOTT,06,547,010,06547010000,LS,-35.2825062106661,-58.8042619084922
SAN MIGUEL DEL MONTE,06,547,020,06547020000,LS,-35.4391643240479,-58.8094598355672
ZENON VIDELA DORNA,06,547,030,06547030000,LS,-35.5447734044526,-58.8855911917932
BALNEARIO SAUCE GRANDE,06,553,010,06553010000,LS,-38.995357691335,-61.2152015930805
MONTE HERMOSO,06,553,020,06553020000,LS,-38.9815065384254,-61.3005457486605
CUARTEL V,06,560,010,06560010001,E,-34.5586595722532,-58.8163010886698
FRANCISCO ALVAREZ,06,560,010,06560010002,E,-34.6073137077479,-58.859942785434
LA REJA,06,560,010,06560010003,E,-34.6452391234366,-58.8380252692761
MORENO,06,560,010,06560010004,E,-34.637632238148,-58.7921362740593
PASO DEL REY,06,560,010,06560010005,E,-34.6353876829627,-58.7503180890016
TRUJUI,06,560,010,06560010006,E,-34.5941439978594,-58.7557346559769
CASTELAR,06,568,010,06568010001,E,-34.6644131034283,-58.6456427123911
EL PALOMAR,06,568,010,06568010002,E,-34.617707172718,-58.601533043415
HAEDO,06,568,010,06568010003,E,-34.6440661183216,-58.5978176171897
MORON,06,568,010,06568010004,E,-34.6652227151167,-58.6190557007973
VILLA SARMIENTO,06,568,010,06568010005,E,-34.6346596523214,-58.5715757135423
JOSE JUAN ALMEYRA,06,574,010,06574010000,LS,-34.9232643360691,-59.5422519447044
LAS MARIANAS,06,574,020,06574020000,LS,-35.0539263781559,-59.5131011825281
NAVARRO,06,574,030,06574030000,LS,-35.0036066018879,-59.2774163163898
VILLA MOLL,06,574,040,06574040000,LS,-35.0782490606759,-59.651945539681
CLARAZ,06,581,010,06581010000,LS,-37.8918269607856,-59.2866977775565
ENERGIA,06,581,025,06581025000,LS,-38.5580125335608,-59.3364566671065
JUAN N. FERNANDEZ,06,581,030,06581030000,LS,-38.0091787783017,-59.2634988347821
NECOCHEA,06,581,040,06581040001,E,-38.5711702285697,-58.7702419838751
QUEQUEN,06,581,040,06581040002,E,-38.5375051784084,-58.6952024694735
COSTA BONITA,06,581,040,06581040003,E,-38.5589732600706,-58.6585544269181
NICANOR OLIVERA,06,581,050,06581050000,LS,-38.2846361959919,-59.202754253612
RAMON SANTAMARINA,06,581,060,06581060000,LS,-38.4503897333336,-59.3311154416146
ALFREDO DEMARCHI,06,588,010,06588010000,LS,-35.2929819536873,-61.4072542128
CARLOS MARIA NAON,06,588,020,06588020000,LS,-35.239499381663,-60.8251358750153
12 DE OCTUBRE,06,588,030,06588030000,LS,-35.607730780146,-60.9182929927645
DUDIGNAC,06,588,040,06588040000,LS,-35.6511928511123,-60.7098962799094
LA AURORA,06,588,050,06588050000,LS,-35.4079467934432,-61.2105668204871
MANUEL B. GONNET,06,588,060,06588060000,LS,-35.5201414507378,-60.9989487976537
MARCELINO UGARTE,06,588,070,06588070000,LS,-35.3462662593318,-60.7453446826815
MOREA,06,588,080,06588080000,LS,-35.5563880098445,-60.5605940553161
NORUMBEGA,06,588,090,06588090000,LS,-35.5357392707567,-60.7928143632315
9 DE JULIO,06,588,100,06588100000,LS,-35.4447435053964,-60.8843433362719
PATRICIOS,06,588,110,06588110000,LS,-35.4395526972374,-60.7174384712323
VILLA GENERAL FOURNIER,06,588,120,06588120000,LS,-35.4989239490928,-60.8647207106461
BLANCAGRANDE,06,595,010,06595010000,LS,-36.5328887082639,-60.8824549132602
COLONIA NIEVAS,06,595,030,06595030000,LS,-36.8641370257955,-60.0816424704
COLONIA SAN MIGUEL,06,595,040,06595040000,LS,-36.9495659791886,-60.1108954083182
ESPIGAS,06,595,050,06595050000,LS,-36.4122732396335,-60.6730694647
COLONIA HINOJO,06,595,060,06595060001,E,-36.8800694499223,-60.1780552970611
HINOJO,06,595,060,06595060002,E,-36.8758995951211,-60.1473196906487
OLAVARRIA,06,595,070,06595070000,LS,-36.8920935788859,-60.3180046559577
RECALDE,06,595,080,06595080000,LS,-36.6515016172821,-61.0845040269815
SANTA LUISA,06,595,090,06595090000,LS,-37.1289653693521,-60.4099303899854
SIERRA CHICA,06,595,100,06595100000,LS,-36.843238222524,-60.2234271381196
SIERRAS BAYAS,06,595,110,06595110001,E,-36.9225238148372,-60.2157925414657
VILLA ARRIETA,06,595,110,06595110002,E,-36.9436605372421,-60.1578271825148
VILLA ALFREDO FORTABAT,06,595,120,06595120000,LS,-36.9802714637124,-60.2790828437139
VILLA LA SERRANIA,06,595,130,06595130000,LS,-36.9903632120511,-60.3108081181748
BAHIA SAN BLAS,06,602,010,06602010000,LS,-40.5602246137406,-62.2380643077459
CARDENAL CAGLIERO,06,602,020,06602020000,LS,-40.6522000086693,-62.7575972084464
CARMEN DE PATAGONES,06,602,030,06602030000,LC,-40.797298324401,-62.984754269904
JOSE B. CASAS,06,602,040,06602040000,LS,-40.4363643935514,-62.5449343513868
JUAN A. PRADERE,06,602,050,06602050000,LS,-39.5993801239416,-62.6510470779021
STROEDER,06,602,060,06602060000,LS,-40.1854869993736,-62.6205163469862
VILLALONGA,06,602,070,06602070000,LS,-39.9151387867695,-62.6188702678852
CAPITAN CASTRO,06,609,010,06609010000,LS,-35.913692884071,-62.2240579143551
CHICLANA,06,609,020,06609020000,LS,-35.7327373193414,-61.7439272931387
FRANCISCO MADERO,06,609,030,06609030000,LS,-35.8483065194137,-62.0693918423117
INOCENCIO SOSA,06,609,035,06609035000,LS,-35.7184196474894,-62.1142777365421
JUAN JOSE PASO,06,609,040,06609040000,LS,-35.8524740557321,-62.2962123802194
MAGDALA,06,609,050,06609050000,LS,-36.0846707903374,-61.7254747841859
MONES CAZON,06,609,060,06609060000,LS,-36.2301776476091,-62.0069944091925
NUEVA PLATA,06,609,070,06609070000,LS,-35.9199117438484,-61.8133995164977
PEHUAJO,06,609,080,06609080000,LS,-35.8123030689596,-61.8988207561037
SAN BERNARDO,06,609,090,06609090000,LS,-35.7137365347985,-61.6477830181101
BOCAYUVA,06,616,010,06616010000,LS,-36.2065730139324,-63.0761554731554
DE BARY,06,616,020,06616020000,LS,-36.3416806655424,-63.2611533171506
PELLEGRINI,06,616,030,06616030000,LS,-36.2697352282386,-63.1652861097017
ACEVEDO,06,623,010,06623010000,LS,-33.755665348987,-60.4408373865386
FONTEZUELA,06,623,020,06623020000,LS,-33.9138392371386,-60.4628650932084
GUERRICO,06,623,030,06623030000,LS,-33.6745849638169,-60.4006865938611
JUAN A. DE LA  PEÑA,06,623,040,06623040000,LS,-33.8322767381075,-60.4864895356948
JUAN ANCHORENA,06,623,050,06623050000,LS,-33.9263378592898,-60.3829034809436
LA VIOLETA,06,623,060,06623060000,LS,-33.7347851403163,-60.1701773086428
MANUEL OCAMPO,06,623,070,06623070000,LS,-33.7647232673599,-60.6492429333859
MARIANO BENITEZ,06,623,080,06623080000,LS,-33.7090270411103,-60.5842599045876
MARIANO H.  ALFONZO,06,623,090,06623090000,LS,-33.9149979004605,-60.8383550657724
PERGAMINO,06,623,100,06623100000,LS,-33.8949900563191,-60.5716400794952
PINZON,06,623,110,06623110000,LS,-33.9947211174052,-60.7316480040989
RANCAGUA,06,623,120,06623120000,LS,-34.0303722475767,-60.5042327001336
VILLA ANGELICA,06,623,130,06623130000,LS,-33.6647037443081,-60.7084372635626
VILLA SAN JOSE,06,623,140,06623140000,LC,-34.0906695795004,-60.4162716627136
CASALINS,06,630,010,06630010000,LS,-36.3181419923689,-58.5525025522873
PILA,06,630,020,06630020000,LS,-36.0014746137723,-58.1427778873885
DEL VISO,06,638,040,06638040001,E,-34.4494009456502,-58.8009119728306
FATIMA,06,638,040,06638040002,E,-34.4072575836787,-58.974691291144
LA LONJA,06,638,040,06638040003,E,-34.4448149403448,-58.8393730861805
LOS CACHORROS,06,638,040,06638040004,E,-34.4250028270043,-58.7950003996087
MANZANARES,06,638,040,06638040005,E,-34.452630932571,-59.0136606624887
MANZONE,06,638,040,06638040006,E,-34.5287308766458,-58.8775995091498
MAQUINISTA F. SAVIO (OESTE),06,638,040,06638040007,E,-34.410617254736,-58.7821701089413
PILAR,06,638,040,06638040008,E,-34.4663318396358,-58.9227197887079
PRESIDENTE DERQUI,06,638,040,06638040009,E,-34.4928616935261,-58.8416985218723
ROBERTO DE VICENZO,06,638,040,06638040010,E,-34.4369652784326,-58.7669941785147
SANTA TERESA,06,638,040,06638040011,E,-34.4366914158447,-58.7573470164393
TORTUGUITAS,06,638,040,06638040012,E,-34.4578061717121,-58.76209072062
VILLA ASTOLFI,06,638,040,06638040013,E,-34.4858983446269,-58.8768335703823
VILLA ROSA,06,638,040,06638040014,E,-34.4077327133185,-58.8539345779841
ZELAYA,06,638,040,06638040015,E,-34.3657182841794,-58.893696088678
CARILO,06,644,010,06644010001,E,-37.1641593745618,-56.9027914378095
OSTENDE,06,644,010,06644010002,E,-37.1300477581888,-56.8833984697828
PINAMAR,06,644,010,06644010003,E,-37.0777448860202,-56.8437227435213
VALERIA DEL MAR,06,644,010,06644010004,E,-37.1445557771803,-56.890291998877
BARRIO AMERICA UNIDA,06,648,010,06648010001,E,-34.886197581853,-58.41733483734
GUERNICA,06,648,010,06648010002,E,-34.9230592108536,-58.3650272662643
AZOPARDO,06,651,010,06651010000,LS,-37.7017920523646,-62.9006764415683
BORDENAVE,06,651,020,06651020000,LS,-37.8028181597411,-63.0425144041162
DARREGUEIRA,06,651,030,06651030000,LS,-37.6857562622736,-63.1595663902141
17 DE AGOSTO,06,651,040,06651040000,LS,-37.9086924428976,-62.9360284730803
ESTELA,06,651,050,06651050000,LS,-38.1080950084855,-62.9129041375994
FELIPE SOLA,06,651,060,06651060000,LS,-38.005992834739,-62.8186936682637
LOPEZ LECUBE,06,651,070,06651070000,LS,-38.1171190117962,-62.7254849373447
PUAN,06,651,080,06651080000,LS,-37.542613502113,-62.7652275731166
SAN GERMAN,06,651,090,06651090000,LS,-38.2995183581309,-62.9821877089624
VILLA CASTELAR,06,651,100,06651100000,LS,-37.3905464925651,-62.8051325654187
VILLA IRIS,06,651,110,06651110000,LS,-38.1693097057753,-63.2320511809102
ALVAREZ JONTE,06,655,010,06655010000,LS,-35.3227800092544,-57.4490768504218
PIPINAS,06,655,030,06655030000,LS,-35.53126706917,-57.3285887617048
PUNTA INDIO,06,655,040,06655040000,LS,-35.2808352898089,-57.2360072391524
VERONICA,06,655,050,06655050000,LS,-35.3881552142501,-57.3371601623743
BERNAL,06,658,010,06658010001,E,-34.700378406023,-58.2766427817003
BERNAL OESTE,06,658,010,06658010002,E,-34.7269644246033,-58.3182795621594
DON BOSCO,06,658,010,06658010003,E,-34.7032130159372,-58.2984533178872
EZPELETA,06,658,010,06658010004,E,-34.7435644425127,-58.2281408361207
EZPELETA OESTE,06,658,010,06658010005,E,-34.7634442077448,-58.2638314351646
QUILMES,06,658,010,06658010006,E,-34.7241344748224,-58.2492205541766
QUILMES OESTE,06,658,010,06658010007,E,-34.7477989892391,-58.2999440151876
SAN FRANCISCO SOLANO,06,658,010,06658010008,E,-34.7777730726874,-58.3101561253692
VILLA LA FLORIDA,06,658,010,06658010009,E,-34.7688841339243,-58.2957092489115
EL PARAISO,06,665,010,06665010000,LS,-33.5679152654445,-59.9791123483107
LAS BAHAMAS,06,665,020,06665020000,LS,-33.6366100825527,-59.9895563465816
PEREZ MILLAN,06,665,030,06665030000,LS,-33.7674497804832,-60.0927343667154
RAMALLO,06,665,040,06665040000,LS,-33.4877021169888,-60.0072209741607
VILLA GENERAL SAVIO,06,665,050,06665050000,LS,-33.4352672179447,-60.1451316522293
VILLA RAMALLO,06,665,060,06665060000,LS,-33.502293213764,-60.0650138035308
RAUCH,06,672,010,06672010000,LS,-36.7755035485732,-59.0871114029954
AMERICA,06,679,010,06679010000,LS,-35.4903412429492,-62.9763759840765
FORTIN OLAVARRIA,06,679,020,06679020000,LS,-35.7048848499519,-63.0230332752501
GONZALEZ MORENO,06,679,030,06679030000,LS,-35.5576529256075,-63.3815800402317
MIRA PAMPA,06,679,040,06679040000,LS,-35.8703867348478,-63.3742010687724
ROOSEVELT,06,679,050,06679050000,LS,-35.8466320155134,-63.2898118317476
SAN MAURICIO,06,679,060,06679060000,LS,-35.5118022821456,-63.1882154861262
SANSINENA,06,679,070,06679070000,LS,-35.2750295400617,-63.2135436741919
SUNDBLAD,06,679,080,06679080000,LS,-35.7656416636683,-63.1386100973601
LA BEBA,06,686,010,06686010000,LS,-34.1544387870912,-61.0128711169321
LAS CARABELAS,06,686,020,06686020000,LS,-34.0381002651925,-60.8685264174218
LOS INDIOS,06,686,030,06686030000,LS,-34.3735696107802,-60.6523710265627
RAFAEL OBLIGADO,06,686,040,06686040000,LS,-34.3588132488617,-60.7845693256007
ROBERTO CANO,06,686,050,06686050000,LS,-34.0876515179763,-60.6672564006968
BARRIO LAS MARGARITAS,06,686,060,06686060001,E,-34.1932374145653,-60.6820264999894
ROJAS,06,686,060,06686060002,E,-34.1872292263523,-60.7179411923956
VILLA PARQUE CECIR,06,686,060,06686060003,E,-34.1707175989305,-60.7438336816558
ESTACION SOL DE MAYO,06,686,070,06686070000,LS,-34.2689448512236,-60.8717773420981
VILLA MANUEL POMAR,06,686,080,06686080000,LC,-33.9159508805463,-60.9379380238883
CARLOS BEGUERIE,06,693,010,06693010000,LS,-35.4854690457283,-59.1017155978911
ROQUE PEREZ,06,693,020,06693020000,LS,-35.4016375824204,-59.3346857845207
ARROYO CORTO,06,700,010,06700010000,LS,-37.512917973477,-62.3116837747426
COLONIA SAN MARTIN,06,700,020,06700020000,LS,-37.9769152091143,-62.3326095560459
DUFAUR,06,700,030,06700030000,LS,-37.9428223013646,-62.284864272698
ESPARTILLAR (E),06,700,040,06700040000,LC,-37.3604343942367,-62.4297386825705
GOYENA,06,700,050,06700050000,LS,-37.7192518502325,-62.6071296330023
LAS ENCADENADAS,06,700,055,06700055000,LS,-38.0361082716296,-62.4704140736323
PIGUE,06,700,060,06700060000,LS,-37.6063896033626,-62.4057728759143
SAAVEDRA,06,700,070,06700070000,LS,-37.7636402199499,-62.3506328041255
ALVAREZ DE TOLEDO,06,707,010,06707010000,LS,-35.6391609182127,-59.6292383440582
CAZON,06,707,030,06707030000,LS,-35.576803202395,-59.6645037628687
DEL CARRIL,06,707,040,06707040000,LS,-35.5127172285926,-59.5158202035334
POLVAREDAS,06,707,050,06707050000,LS,-35.593907231155,-59.5079734849201
SALADILLO,06,707,060,06707060000,LS,-35.6404298805989,-59.7790589845354
ARROYO DULCE,06,714,010,06714010000,LC,-34.1024332833136,-60.4061551794069
BERDIER,06,714,020,06714020000,LS,-34.3987726587976,-60.2605725409335
GAHAN,06,714,030,06714030000,LS,-34.3380744009945,-60.0992736191527
INES INDART,06,714,040,06714040000,LS,-34.3994163305262,-60.5436825925267
LA INVENCIBLE,06,714,050,06714050000,LS,-34.2687422037239,-60.3853645216588
SALTO,06,714,060,06714060000,LS,-34.2921598652878,-60.2546244496406
QUENUMA,06,721,010,06721010000,LS,-36.5689908284906,-63.0876229573465
SALLIQUELO,06,721,020,06721020000,LS,-36.7511653813281,-62.9599573443115
AZCUENAGA,06,728,010,06728010000,LS,-34.3637910907784,-59.3745991110996
CULULLU,06,728,020,06728020000,LS,-34.4460870678,-59.3622553297801
FRANKLIN,06,728,030,06728030000,LS,-34.6103908719397,-59.6301795182439
SAN ANDRES DE GILES,06,728,040,06728040000,LS,-34.4459080814748,-59.4451673563949
SOLIS,06,728,050,06728050000,LS,-34.2989712949513,-59.3250547278241
VILLA ESPIL,06,728,060,06728060000,LS,-34.5066814044811,-59.3372661316763
VILLA RUIZ,06,728,070,06728070000,LS,-34.4352021828488,-59.260395880426
DUGGAN,06,735,010,06735010000,LS,-34.2071973030208,-59.6357055338083
SAN ANTONIO DE ARECO,06,735,020,06735020000,LS,-34.2503763113877,-59.4708634797005
VILLA LIA,06,735,030,06735030000,LS,-34.1237740718192,-59.4313725724126
BALNEARIO SAN CAYETANO,06,742,010,06742010000,LS,-38.7481815016452,-59.429204589717
OCHANDIO,06,742,020,06742020000,LS,-38.3598244506044,-59.7935349347064
SAN CAYETANO,06,742,030,06742030000,LS,-38.346970946847,-59.6063826058006
SAN FERNANDO,06,749,010,06749010001,E,-34.4473601745411,-58.5690015916776
VICTORIA,06,749,010,06749010002,E,-34.4619820050413,-58.5595970877081
VIRREYES,06,749,010,06749010003,E,-34.4636240092728,-58.5761941633194
ACASSUSO,06,756,010,06756010001,E,-34.4794018120083,-58.5074043996961
BECCAR,06,756,010,06756010002,E,-34.4674159462571,-58.5400343502635
BOULOGNE SUR MER,06,756,010,06756010003,E,-34.4983312888498,-58.5700137209729
MARTINEZ,06,756,010,06756010004,E,-34.4944230772436,-58.5105732755943
SAN ISIDRO,06,756,010,06756010005,E,-34.4770412162141,-58.52719519996
VILLA ADELINA,06,756,010,06756010006,E,-34.5151197673508,-58.5457579220177
BELLA VISTA,06,760,010,06760010001,E,-34.5751401519414,-58.6960409885544
CAMPO DE MAYO,06,760,010,06760010002,E,-34.5346818189868,-58.6513860167431
MUÑIZ,06,760,010,06760010003,E,-34.5557351629874,-58.7080227572424
SAN MIGUEL,06,760,010,06760010004,E,-34.5536228677773,-58.7347875195953
CONESA,06,763,010,06763010000,LS,-33.5962124822607,-60.3541264450858
EREZCANO,06,763,020,06763020000,LS,-33.5232449410318,-60.3174454958625
GENERAL ROJO,06,763,030,06763030000,LS,-33.4758683523604,-60.2874270636731
LA EMILIA,06,763,040,06763040001,E,-33.3514852802661,-60.3139573529074
VILLA CAMPI,06,763,040,06763040002,E,-33.3599587304228,-60.3000892882903
VILLA CANTO,06,763,040,06763040003,E,-33.3708479748,-60.2954116362263
VILLA RICCIO,06,763,040,06763040004,E,-33.3630498059477,-60.2953990898749
CAMPOS SALLES,06,763,050,06763050001,E,-33.4010837029564,-60.2846972878391
SAN NICOLAS DE LOS ARROYOS,06,763,050,06763050002,E,-33.3487082868277,-60.231333927581
VILLA ESPERANZA,06,763,060,06763060000,LS,-33.422326147095,-60.2605874904382
GOBERNADOR CASTRO,06,770,010,06770010000,LS,-33.6605787290919,-59.8663408291494
INGENIERO MONETA,06,770,015,06770015000,LS,-33.9314631330704,-59.7482330053997
OBLIGADO,06,770,020,06770020000,LS,-33.5965558617631,-59.8199792397796
PUEBLO DOYLE,06,770,030,06770030000,LS,-33.9050057189811,-59.8187532271261
RIO TALA,06,770,040,06770040000,LS,-33.769589927701,-59.6383708591324
SAN PEDRO,06,770,050,06770050000,LS,-33.6791252253366,-59.6668951027895
SANTA LUCIA,06,770,060,06770060000,LS,-33.8794559527188,-59.8753284459435
ALEJANDRO KORN,06,778,020,06778020001,E,-35.0135125285778,-58.3865346894091
SAN VICENTE,06,778,020,06778020002,E,-35.010404143813,-58.4699705982043
DOMSELAAR,06,778,020,06778020003,E,-35.048692550243,-58.3145745868708
GENERAL RIVAS,06,784,010,06784010000,LS,-34.6100370680434,-59.7504234207746
SUIPACHA,06,784,020,06784020000,LS,-34.7712617839883,-59.6879181821818
DE LA CANAL,06,791,010,06791010000,LS,-37.1293125663244,-59.105380206456
GARDEY,06,791,030,06791030000,LS,-37.2823323375205,-59.3630004748452
MARIA IGNACIA,06,791,040,06791040000,LS,-37.4029073074266,-59.5093354449092
TANDIL,06,791,050,06791050000,LS,-37.3238849060878,-59.1310691770429
CROTTO,06,798,010,06798010000,LS,-36.5774103919485,-60.1711185359919
TAPALQUE,06,798,020,06798020000,LS,-36.3573669882462,-60.0247443487218
VELLOSO,06,798,030,06798030000,LS,-36.1215309084723,-59.6527146246682
BENAVIDEZ,06,805,010,06805010001,E,-34.4104347356392,-58.6887919689512
DIQUE LUJAN,06,805,010,06805010002,E,-34.3717750147952,-58.6917925096496
DON TORCUATO ESTE,06,805,010,06805010003,E,-34.4869370480479,-58.6159410299812
DON TORCUATO OESTE,06,805,010,06805010004,E,-34.5035354582885,-58.6275286549289
EL TALAR,06,805,010,06805010005,E,-34.4713213368481,-58.6570301927479
GENERAL PACHECO,06,805,010,06805010006,E,-34.4523088119909,-58.6448936162046
LOS TRONCOS DEL TALAR,06,805,010,06805010007,E,-34.4425672031974,-58.6174364127772
RICARDO ROJAS,06,805,010,06805010008,E,-34.4563339674448,-58.6806670320976
RINCON DE MILBERG,06,805,010,06805010009,E,-34.4097532043357,-58.6304827023614
TIGRE,06,805,010,06805010010,E,-34.4266925110065,-58.5779717541318
GENERAL CONESA,06,812,010,06812010000,LS,-36.5208587437818,-57.3249371025508
CHASICO,06,819,010,06819010000,LS,-38.3352258409739,-62.6424099899733
SALDUNGARAY,06,819,020,06819020000,LS,-38.2028131038038,-61.7678925154653
SIERRA DE LA VENTANA,06,819,030,06819030000,LC,-38.1366716139365,-61.7956860399239
TORNQUIST,06,819,040,06819040000,LS,-38.0989983131157,-62.2218091270044
TRES PICOS,06,819,050,06819050000,LS,-38.2867749310339,-62.2073117423093
VILLA SERRANA LA GRUTA,06,819,060,06819060000,LS,-38.0568266332177,-62.0782618310425
VILLA VENTANA,06,819,070,06819070000,LS,-38.0795765714478,-61.9311383483155
BERUTTI,06,826,010,06826010000,LS,-35.8580311359835,-62.5126328995628
GIRODIAS,06,826,020,06826020000,LS,-36.367451804132,-62.3569660936558
LA CARRETA,06,826,030,06826030000,LS,-36.1964811594442,-62.2245641400875
30 DE AGOSTO,06,826,040,06826040000,LS,-36.2779720057322,-62.5453088654651
TRENQUE LAUQUEN,06,826,050,06826050000,LS,-35.9746951559846,-62.7323099655579
TRONGE,06,826,060,06826060000,LS,-36.4603092402658,-62.4871229040303
BALNEARIO ORENSE,06,833,010,06833010000,LS,-38.8079580951783,-59.7382989446997
CLAROMECO,06,833,020,06833020001,E,-38.7973744243016,-60.107623035402
DUNAMAR,06,833,020,06833020002,E,-38.8586780962346,-60.0873319312173
COPETONAS,06,833,030,06833030000,LS,-38.7227403438549,-60.4519655195991
LIN CALEL,06,833,040,06833040000,LS,-38.7081778337076,-60.2417246463467
MICAELA CASCALLARES,06,833,050,06833050000,LS,-38.4926790060303,-60.4684232796744
ORENSE,06,833,060,06833060000,LS,-38.6855169253543,-59.7764287092023
RETA,06,833,070,06833070000,LS,-38.8970805514765,-60.343409791669
SAN FRANCISCO DE BELLOCQ,06,833,080,06833080000,LS,-38.6931705173547,-60.0141786926695
SAN MAYOL,06,833,090,06833090000,LS,-38.3177365227324,-60.0258421214843
TRES ARROYOS,06,833,100,06833100000,LS,-38.3771785795114,-60.2755588939396
VILLA RODRIGUEZ,06,833,110,06833110000,LS,-38.3125817693893,-60.2324995777758
CASEROS,06,840,010,06840010001,E,-34.608872950993,-58.5636644572416
CHURRUCA,06,840,010,06840010002,E,-34.5589664800215,-58.6228016204112
CIUDAD JARDIN LOMAS DEL PALOMAR,06,840,010,06840010003,E,-34.5961197253917,-58.5965998962097
CIUDADELA,06,840,010,06840010004,E,-34.6326965166188,-58.5424067827037
EL LIBERTADOR,06,840,010,06840010005,E,-34.5564986200599,-58.622337837699
JOSE INGENIEROS,06,840,010,06840010006,E,-34.6171528691842,-58.5342186326877
LOMA HERMOSA,06,840,010,06840010007,E,-34.5684066633166,-58.603081885803
MARTIN CORONADO,06,840,010,06840010008,E,-34.5852038063892,-58.5918755543704
11 DE SEPTIEMBRE,06,840,010,06840010009,E,-34.566314345456,-58.6183600679169
PABLO PODESTA,06,840,010,06840010010,E,-34.5758246152249,-58.6202497472316
REMEDIOS DE ESCALADA,06,840,010,06840010011,E,-34.5705752444729,-58.620118067161
SAENZ PEÑA,06,840,010,06840010012,E,-34.5992886088748,-58.5320796402641
SANTOS LUGARES,06,840,010,06840010013,E,-34.5991533496562,-58.5478835120962
VILLA BOSCH (EST. JUAN MARIA BOSCH),06,840,010,06840010014,E,-34.5822981982887,-58.5802932642206
VILLA RAFFO,06,840,010,06840010015,E,-34.6083090753398,-58.5319718083201
INGENIERO THOMPSON,06,847,010,06847010000,LS,-36.6102541131892,-62.9109612139671
TRES LOMAS,06,847,020,06847020000,LS,-36.458109497037,-62.8621355091327
AGUSTIN MOSCONI,06,854,010,06854010000,LS,-35.7392169542026,-60.5590634621789
DEL VALLE,06,854,020,06854020000,LS,-35.8973453887603,-60.7316089512944
ERNESTINA,06,854,030,06854030000,LS,-35.2702340519789,-59.5575034078873
GOBERNADOR UGARTE,06,854,040,06854040000,LS,-35.1643973648093,-60.0813577815069
LUCAS MONTEVERDE,06,854,050,06854050000,LS,-35.4838272164734,-59.9880647932831
NORBERTO DE LA RIESTRA,06,854,060,06854060000,LS,-35.2727788695321,-59.7719327250509
PEDERNALES,06,854,070,06854070000,LS,-35.2666085074294,-59.6306574695384
SAN ENRIQUE,06,854,080,06854080000,LS,-35.7785028686085,-60.3546454811901
VALDES,06,854,090,06854090000,LS,-35.6488128268597,-60.4672591673156
25 DE MAYO,06,854,100,06854100000,LS,-35.4339385892588,-60.1731209454056
CARAPACHAY,06,861,010,06861010001,E,-34.5259149691463,-58.5357639427634
FLORIDA,06,861,010,06861010002,E,-34.5327432636609,-58.4910979599198
FLORIDA OESTE,06,861,010,06861010003,E,-34.5394223366496,-58.5148137943065
LA LUCILA,06,861,010,06861010004,E,-34.4985433329471,-58.486582489457
MUNRO,06,861,010,06861010005,E,-34.5272623078248,-58.5255060588714
OLIVOS,06,861,010,06861010006,E,-34.512161433984,-58.4985444232342
VICENTE LOPEZ,06,861,010,06861010007,E,-34.525536745172,-58.4736495025234
VILLA ADELINA,06,861,010,06861010008,E,-34.5287596487564,-58.5460242623901
VILLA MARTELLI,06,861,010,06861010009,E,-34.5525979527695,-58.5091432644227
MAR AZUL,06,868,010,06868010001,E,-37.3366731576801,-57.032501468863
MAR DE LAS PAMPAS,06,868,010,06868010002,E,-37.3281312355181,-57.0399070097774
VILLA GESELL,06,868,020,06868020000,LS,-37.2464704698501,-56.9707267624406
ARGERICH,06,875,010,06875010000,LS,-38.7686560837266,-62.6025276771033
COLONIA SAN ADOLFO,06,875,020,06875020000,LS,-39.3983952518232,-62.5711721088672
COUNTRY LOS MEDANOS,06,875,025,06875025000,LS,-38.8468445915571,-62.738741885831
HILARIO ASCASUBI,06,875,030,06875030000,LS,-39.3758602632663,-62.6477900877351
JUAN COUSTE,06,875,040,06875040000,LS,-38.8942604188728,-63.1361581918897
MAYOR BURATOVICH,06,875,050,06875050000,LS,-39.2590946793617,-62.6157889589915
MEDANOS,06,875,060,06875060002,E,-38.8293145512181,-62.6943321574343
PEDRO LURO,06,875,070,06875070000,LS,-39.5007767274615,-62.6874317159849
TENIENTE ORIGONE,06,875,080,06875080000,LS,-39.0580586668564,-62.5697137402023
COUNTRY CLUB EL CASCO,06,882,020,06882020000,LS,-34.1275885141615,-59.0834596008166
ESCALADA,06,882,030,06882030000,LS,-34.160933188334,-59.1125399836881
LIMA,06,882,040,06882040000,LS,-34.0436335939636,-59.1973339595539
BARRIO SAAVEDRA,06,882,050,06882050001,E,-34.1263843372848,-59.020156759664
ZARATE,06,882,050,06882050002,E,-34.1115306481926,-59.0483426856883
CHUCHUCARUANA,10,007,010,10007010000,LS,-27.9072844349135,-65.8265242094263
COLPES,10,007,020,10007020000,LS,-28.056472497625,-65.8260844153652
EL BOLSON,10,007,030,10007030000,LS,-27.9038743420396,-65.8884829262542
EL RODEO,10,007,040,10007040000,LS,-28.2141516424861,-65.8738600634115
HUAYCAMA,10,007,050,10007050000,LS,-28.0988458342305,-65.8147464336478
LA PUERTA,10,007,060,10007060000,LS,-28.1764379052117,-65.7863037835082
LAS CHACRITAS,10,007,070,10007070000,LS,-27.6464168267027,-65.9533446470458
LAS JUNTAS,10,007,080,10007080000,LS,-28.1038836314671,-65.8996513641899
LOS CASTILLOS,10,007,090,10007090000,LS,-27.9582295650792,-65.820685723313
LOS TALAS,10,007,100,10007100000,LS,-27.94999754917,-65.875829814164
LOS VARELA,10,007,110,10007110000,LS,-27.9279942328057,-65.8822302327591
SINGUIL,10,007,120,10007120000,LS,-27.8142168571341,-65.8670660017181
ANCASTI,10,014,010,10014010000,LS,-28.809829766706,-65.5021019996524
ANQUINCILA,10,014,020,10014020000,LS,-28.7545936474404,-65.5495102803337
LA CANDELARIA,10,014,030,10014030000,LS,-28.7207622901373,-65.4106917370235
LA MAJADA,10,014,040,10014040000,LS,-29.0295107636719,-65.5499567687055
AMANAO,10,021,010,10021010000,LS,-27.5275895579827,-66.5156761677031
ANDALGALA,10,021,020,10021020000,LS,-27.5732225954972,-66.3235466394645
CHAQUIAGO,10,021,030,10021030000,LS,-27.5368955481985,-66.3350568927423
CHOYA,10,021,040,10021040000,LS,-27.5210749343604,-66.4034742805443
BUENA VISTA,10,021,050,10021050001,E,-27.3391922396844,-66.0241892155379
EL ALAMITO,10,021,050,10021050002,E,-27.333537875981,-66.022985174122
ACONQUIJA,10,021,060,10021060001,E,-27.4743798884533,-66.0266884349829
ALTO DE LAS JUNTAS,10,021,060,10021060002,E,-27.4511959792163,-66.0199688270559
EL LINDERO,10,021,060,10021060003,E,-27.4743798884533,-66.0266884349829
LA MESADA,10,021,060,10021060004,E,-27.4511959792163,-66.0199688270559
EL POTRERO,10,021,070,10021070000,LS,-27.5162322380357,-66.3434280762552
LA AGUADA,10,021,080,10021080000,LS,-27.534089032104,-66.3117750484602
ANTOFAGASTA DE LA SIERRA,10,028,010,10028010000,LS,-26.0632957365737,-67.4116706391736
ANTOFALLA,10,028,020,10028020000,LS,-25.445326397371,-67.6583954684648
EL PEÑON,10,028,030,10028030000,LS,-26.4377795455164,-67.2590953594946
LOS NACIMIENTOS,10,028,040,10028040000,LS,-25.7592665755338,-67.3912671398198
BARRANCA LARGA,10,035,010,10035010000,LS,-26.9366725902001,-66.7473736733687
BELEN,10,035,020,10035020000,LS,-27.6337582271366,-67.0181224346383
CONDOR HUASI,10,035,030,10035030000,LS,-27.4800253698881,-67.1034365555174
CORRAL QUEMADO,10,035,040,10035040000,LS,-27.1458266170631,-66.9418772140389
EL DURAZNO,10,035,050,10035050000,LS,-27.2352160693093,-67.0644302349354
FARALLON NEGRO,10,035,060,10035060000,LS,-27.297991160481,-66.6526535881206
HUALFIN,10,035,070,10035070000,LS,-27.2251089488391,-66.8257494663378
JACIPUNCO,10,035,080,10035080000,LS,-27.2232502935304,-67.0189560597067
LA PUNTILLA,10,035,090,10035090000,LS,-27.6687999477098,-66.9831854181017
LAS JUNTAS,10,035,100,10035100000,LS,-27.5255267279244,-67.1230327103174
LONDRES,10,035,110,10035110000,LS,-27.7091441699136,-67.1521288574758
LOS NACIMIENTOS,10,035,120,10035120000,LS,-27.1276313861506,-66.7125336324121
PUERTA DE CORRAL QUEMADO,10,035,130,10035130000,LS,-27.2142919344438,-66.9263178640934
PUERTA DE SAN JOSE,10,035,140,10035140000,LS,-27.5397412070942,-67.0153310519752
VILLA VIL,10,035,150,10035150000,LS,-27.0710806751114,-66.8307696967369
ADOLFO E. CARRANZA,10,042,010,10042010000,LS,-29.0269775235925,-65.9719315369666
BALDE DE LA PUNTA,10,042,020,10042020000,LS,-29.5589484234071,-65.5807240749041
CAPAYAN,10,042,030,10042030000,LS,-28.7807106449765,-66.0386455444458
CHUMBICHA,10,042,040,10042040000,LS,-28.8475652676601,-66.2413567840968
COLONIA DEL VALLE,10,042,050,10042050000,LS,-28.6659572317315,-65.8752053335172
COLONIA NUEVA CONETA,10,042,060,10042060000,LS,-28.5859218596167,-65.8384330489801
CONCEPCION,10,042,070,10042070000,LS,-28.7027878127673,-66.0684404425234
CONETA,10,042,080,10042080000,LS,-28.5824940471212,-65.8832899522771
EL BAÑADO,10,042,090,10042090000,LS,-28.6492910442287,-65.8184083876597
HUILLAPIMA,10,042,100,10042100000,LS,-28.7326533523263,-65.9692671337206
LOS ANGELES NORTE,10,042,110,10042110001,E,-28.4130524181894,-65.9974963114274
LOS ANGELES SUR,10,042,110,10042110002,E,-28.5096259939006,-66.0134501995358
MIRAFLORES,10,042,120,10042120000,LS,-28.61156437771,-65.9045510608673
SAN MARTIN,10,042,130,10042130000,LS,-29.2514238184412,-65.7966971627176
SAN PABLO,10,042,140,10042140000,LS,-28.7185211619112,-66.0406031753627
SAN PEDRO,10,042,150,10042150000,LS,-28.7717177596284,-66.1240600986815
EL PANTANILLO,10,049,020,10049020000,LS,-28.5416893432334,-65.8026632730873
SAN FERNANDO DEL VALLE DE CATAMARCA,10,049,030,10049030000,LC,-28.4846581947085,-65.7867892937631
EL ALTO,10,056,010,10056010000,LS,-28.3027477561138,-65.3693767192491
GUAYAMBA,10,056,020,10056020000,LS,-28.3441266642037,-65.4127476684157
INFANZON,10,056,030,10056030000,LS,-28.5973244077887,-65.4116602658918
LOS CORRALES,10,056,040,10056040000,LS,-28.5108290239161,-65.3308772218931
TAPSO,10,056,050,10056050000,LC,-28.4159041977159,-65.1086409589416
VILISMAN,10,056,060,10056060000,LS,-28.5021133153073,-65.4385489995235
COLLAGASTA,10,063,010,10063010000,LS,-28.3616776397898,-65.7282690165025
POMANCILLO ESTE,10,063,020,10063020000,LS,-28.3087173740113,-65.7222098439933
POMANCILLO OESTE,10,063,030,10063030000,LS,-28.3178432457188,-65.7423447192215
EL HUECO,10,063,040,10063040001,E,-28.4127884506849,-65.7175369854892
LA CARRERA,10,063,040,10063040002,E,-28.3495576813874,-65.7091195877043
LA FALDA DE SAN ANTONIO,10,063,040,10063040003,E,-28.4198487342191,-65.6988377960377
LA TERCENA,10,063,040,10063040004,E,-28.3734473479931,-65.7081292515981
SAN ANTONIO,10,063,040,10063040005,E,-28.4237766788262,-65.7062134320732
SAN JOSE,10,063,040,10063040006,E,-28.3887321458271,-65.7062701247999
VILLA LAS PIRQUITAS,10,063,050,10063050000,LS,-28.2754665210832,-65.733431477509
CASA DE PIEDRA,10,070,010,10070010000,LS,-29.649289010725,-65.5171151597056
EL AYBAL,10,070,020,10070020000,LS,-29.1066140404485,-65.339695207396
EL BAÑADO,10,070,030,10070030000,LS,-29.1832354089391,-65.4161459216901
EL DIVISADERO,10,070,040,10070040000,LS,-29.193718415728,-65.4233403523442
EL QUIMILO,10,070,050,10070050000,LS,-29.9534214435134,-65.3926406151323
ESQUIU,10,070,060,10070060000,LS,-29.3790661944991,-65.2898287859815
ICAÑO,10,070,070,10070070000,LS,-28.9308886124085,-65.2902158081112
LA DORADA,10,070,080,10070080000,LS,-29.2804387843954,-65.4766321943102
LA GUARDIA,10,070,090,10070090000,LS,-29.5496731497758,-65.4504857993817
LAS ESQUINAS,10,070,100,10070100000,LS,-28.7644628061471,-65.1120210167305
LAS PALMITAS,10,070,110,10070110000,LS,-28.6402396947153,-64.9870716926629
QUIROS,10,070,120,10070120000,LS,-28.7883056058069,-65.1007302335708
RAMBLONES,10,070,130,10070130000,LS,-29.1582844511715,-65.374945475853
RECREO,10,070,140,10070140000,LS,-29.2768611237227,-65.0565641552447
SAN ANTONIO,10,070,150,10070150000,LS,-28.9331053161662,-65.0949655869377
AMADORES,10,077,010,10077010000,LS,-28.2680363798746,-65.6462108146466
EL ROSARIO,10,077,020,10077020000,LS,-27.9877541032226,-65.688606939529
LA BAJADA,10,077,030,10077030000,LS,-28.3920524907261,-65.6282649899935
RODEO,70,049,060,70049060000,LS,-30.209958054186,-69.1336132382893
LA HIGUERA,10,077,040,10077040000,LS,-27.9352828616507,-65.699367489363
LA MERCED,10,077,050,10077050000,LS,-28.1537649054231,-65.6696062414473
LA VIÑA,10,077,060,10077060000,LS,-28.044445782746,-65.6079383578395
LAS LAJAS,10,077,070,10077070000,LS,-27.826913357423,-65.7401079267206
MONTE POTRERO,10,077,080,10077080000,LS,-28.19124607288,-65.670675013192
PALO LABRADO,10,077,090,10077090000,LS,-28.3360934480518,-65.6274299147885
SAN ANTONIO,10,077,100,10077100000,LS,-28.0073083693979,-65.726850392729
VILLA DE BALCOZNA,10,077,110,10077110000,LS,-27.87835755933,-65.7190758944755
APOYACO,10,084,010,10084010000,LS,-28.3006337911705,-66.1659791753183
COLANA,10,084,020,10084020000,LS,-28.3432877302321,-66.1222559102194
COLPES,10,084,030,10084030000,LS,-28.0606503909839,-66.2065039006705
EL PAJONAL,10,084,040,10084040000,LS,-28.3773148491306,-66.3017092655099
JOYANGO,10,084,050,10084050000,LS,-28.0731019653889,-66.1435569766782
MUTQUIN,10,084,060,10084060000,LS,-28.3178455729042,-66.1420642866296
POMAN,10,084,070,10084070000,LS,-28.3927801149204,-66.2220823999264
RINCON,10,084,080,10084080000,LS,-28.2022631098292,-66.148799132888
SAN MIGUEL,10,084,090,10084090000,LS,-28.1297413013666,-66.2019565174868
SAUJIL,10,084,100,10084100000,LS,-28.173337080009,-66.2145148644181
SIJAN,10,084,110,10084110000,LS,-28.2623558875079,-66.2209299175292
ANDALHUALA,10,091,010,10091010000,LS,-26.8479427341705,-66.0244068592756
CASPICHANGO,10,091,020,10091020000,LS,-26.6859290047178,-65.970794986953
CHAÑAR PUNCO,10,091,030,10091030001,E,-26.7588342868363,-66.0493067195716
LAMPACITO,10,091,030,10091030002,E,-26.7265981975072,-66.0436979128184
MEDANITOS,10,091,030,10091030003,E,-26.7588342868363,-66.0493067195716
EL CAJON,10,091,040,10091040000,LS,-26.3955476915097,-66.2641930164042
EL DESMONTE,10,091,050,10091050000,LS,-26.9077168676094,-66.020423153794
EL PUESTO,10,091,060,10091060000,LS,-26.6307679478768,-66.0140418967533
FAMATANCA,10,091,070,10091070001,E,-26.8101195558413,-66.0595221384282
SAN JOSE BANDA,10,091,070,10091070002,E,-26.8101195558413,-66.0595221384282
FUERTE QUEMADO,10,091,080,10091080000,LS,-26.6304336405934,-66.0644373734469
LA HOYADA,10,091,090,10091090000,LS,-26.5189083514476,-66.3686109740362
LA LOMA,10,091,100,10091100000,LC,-26.7574990827117,-66.0331064865258
EL CERRITO,10,091,110,10091110001,E,-26.6988604981977,-66.0387334407325
LAS MOJARRAS,10,091,110,10091110002,E,-26.6988604981977,-66.0387334407325
LORO HUASI,10,091,120,10091120000,LC,-26.7361383729613,-66.0217845814201
PUNTA DE BALASTO,10,091,130,10091130000,LS,-26.9300943985158,-66.1487294264287
CASA DE PIEDRA,10,091,140,10091140001,E,-26.8274550484771,-66.0506274507575
LA PUNTILLA,10,091,140,10091140002,E,-26.8274550484771,-66.0506274507575
PALO SECO,10,091,140,10091140003,E,-26.8274550484771,-66.0506274507575
SAN JOSE NORTE,10,091,140,10091140004,E,-26.7745985033315,-66.0362576892132
SAN JOSE VILLA,10,091,140,10091140005,E,-26.7919331343022,-66.0378776334838
SANTA MARIA,10,091,150,10091150000,LS,-26.6891167120231,-66.018884441311
YAPES,10,091,160,10091160000,LS,-26.8289862929732,-66.0179166770413
ALIJILAN,10,098,010,10098010000,LS,-28.1771812692249,-65.4915924205872
BAÑADO DE OVANTA,10,098,020,10098020000,LS,-28.1034003361447,-65.3076846046355
LAS CAÑAS,10,098,030,10098030000,LS,-28.2098696025062,-65.2230167049514
LAVALLE,10,098,040,10098040000,LC,-28.1946338127178,-65.1137806266473
LOS ALTOS,10,098,050,10098050000,LS,-28.0488590493489,-65.4973640431533
MANANTIALES,10,098,060,10098060000,LS,-28.1469656455994,-65.5073235747446
SAN PEDRO,10,098,070,10098070000,LC,-27.9608485883022,-65.1680076958397
ANILLACO,10,105,010,10105010000,LS,-27.9001528461069,-67.6142838741591
ANTINACO,10,105,020,10105020000,LS,-27.231445564254,-67.6080549409746
BANDA DE LUCERO,10,105,030,10105030000,LS,-28.0687850626962,-67.50770242056
CERRO NEGRO,10,105,040,10105040000,LS,-28.2432405441597,-67.144273179127
COPACABANA,10,105,050,10105050001,E,-28.1243914662106,-67.4981013989976
LA PUNTILLA,10,105,050,10105050002,E,-28.1243914662106,-67.4981013989976
CORDOBITA,10,105,060,10105060000,LS,-28.2979798704965,-67.1670904449903
COSTA DE REYES,10,105,070,10105070000,LS,-28.294959923009,-67.702902490024
EL PUEBLITO,10,105,080,10105080000,LS,-28.2888183254668,-67.1234522983543
EL PUESTO,10,105,090,10105090000,LS,-27.9267621470675,-67.6304002049274
EL SALADO,10,105,100,10105100000,LS,-28.3120206339513,-67.250879321266
FIAMBALA,10,105,110,10105110001,E,-27.69316213413,-67.608574901701
LA RAMADITA,10,105,110,10105110002,E,-27.6442427673373,-67.6139458012753
PAMPA BLANCA,10,105,110,10105110003,E,-27.6354340349652,-67.6168389660358
LOS BALVERDIS,10,105,120,10105120000,LS,-28.2769854029709,-67.1074444099184
MEDANITOS,10,105,130,10105130000,LS,-27.5239130706008,-67.5891477326484
PALO BLANCO,10,105,140,10105140000,LS,-27.3395852802531,-67.7592295432626
PUNTA DEL AGUA,10,105,150,10105150000,LS,-27.2106668219369,-67.7317928557182
SAUJIL,10,105,160,10105160000,LS,-27.5632127581426,-67.6355130611556
TATON,10,105,170,10105170000,LS,-27.3270122428844,-67.4747701838904
TINOGASTA,10,105,180,10105180000,LS,-28.0637510698675,-67.5802695760226
EL PORTEZUELO,10,112,010,10112010000,LS,-28.4818680419511,-65.6351326652418
HUAYCAMA,10,112,020,10112020000,LS,-28.5334483576648,-65.6821279512165
LAS TEJAS,10,112,030,10112030000,LS,-28.6468889609952,-65.7889935499028
EL BAÑADO,10,112,040,10112040001,E,-28.4594352492075,-65.7113717209433
POLCOS,10,112,040,10112040002,E,-28.4333815878035,-65.7202973350365
POZO DEL MISTOL,10,112,040,10112040003,E,-28.4689789857859,-65.7195047318519
SAN ISIDRO,10,112,040,10112040004,E,-28.4583109666735,-65.726757673457
SANTA ROSA,10,112,040,10112040005,E,-28.447802287271,-65.7055328995515
SUMALAO,10,112,040,10112040006,E,-28.4746455518307,-65.7433480027028
VILLA DOLORES,10,112,040,10112040007,E,-28.4434739220039,-65.7215360640125
SANTA CRUZ,10,112,050,10112050000,LS,-28.4928946549812,-65.6744465587279
AMBOY,14,007,010,14007010000,LS,-32.1759165218621,-64.5765483175138
ARROYO SAN ANTONIO,14,007,020,14007020000,LC,-32.26205146004,-64.5937253212731
CAÑADA DEL SAUCE,14,007,030,14007030000,LS,-32.3679991604313,-64.6425223427633
CAPILLA VIEJA,14,007,040,14007040000,LS,-31.942027416529,-64.6165406145348
EL CORCOVADO - EL TORREON,14,007,050,14007050000,LS,-32.149759071844,-64.5015914694579
EL DURAZNO,14,007,055,14007055000,LS,-32.1695656120552,-64.7747710529989
EMBALSE,14,007,060,14007060000,LS,-32.2065076875762,-64.4006226825819
LA CRUZ,14,007,070,14007070000,LS,-32.3034055718452,-64.4831089740345
LA CUMBRECITA,14,007,080,14007080000,LS,-31.8969643877578,-64.7751589433589
LAS BAJADAS,14,007,090,14007090000,LS,-32.0954063583092,-64.3310535546374
LAS CALERAS,14,007,100,14007100000,LS,-32.3893612457104,-64.5185923418535
LOS CONDORES,14,007,110,14007110000,LS,-32.3211277679392,-64.2810080327514
LOS MOLINOS,14,007,120,14007120001,E,-31.8582901636165,-64.3750577906576
VILLA SAN MIGUEL,14,007,120,14007120002,E,-31.8582901636165,-64.3750577906576
LOS REARTES,14,007,130,14007130000,LC,-31.919856077953,-64.5755037073336
LUTTI,14,007,140,14007140000,LS,-32.2989441032587,-64.7254379234594
PARQUE CALMAYO,14,007,160,14007160000,LS,-32.0237443074993,-64.4641636844138
RIO DE LOS SAUCES,14,007,170,14007170000,LS,-32.5265595269976,-64.5869530802431
SAN AGUSTIN,14,007,180,14007180000,LS,-31.9763155149128,-64.3733067164283
SAN IGNACIO (LOTEO SAN JAVIER),14,007,190,14007190000,LS,-32.1667856733263,-64.516397206098
SANTA MONICA,14,007,210,14007210001,E,-32.0665951444652,-64.5791018557419
SANTA ROSA DE CALAMUCHITA,14,007,210,14007210002,E,-32.0731573746398,-64.5447323761644
SAN IGNACIO (LOTEO VELEZ CRESPO),14,007,210,14007210003,E,-32.0994512671733,-64.5337591760097
SEGUNDA USINA,14,007,220,14007220000,LS,-32.1650425977053,-64.3784225873001
SOLAR DE LOS MOLINOS,14,007,230,14007230000,LS,-31.8262216703829,-64.5197802668561
VILLA ALPINA,14,007,240,14007240000,LS,-31.9532611007669,-64.8132541353652
VILLA AMANCAY,14,007,250,14007250000,LS,-32.1863928332037,-64.570452981186
VILLA BERNA,14,007,260,14007260000,LS,-31.9052382568315,-64.7428823583405
VILLA CIUDAD PARQUE LOS REARTES,14,007,270,14007270001,E,-31.9091576117526,-64.5456887371347
VILLA CIUDAD PARQUES LOS REARTES (1° SECCION),14,007,270,14007270002,E,-31.9091576117526,-64.5456887371347
VILLA CIUDAD PARQUE LOS REARTES (3° SECCION),14,007,270,14007270003,E,-31.9091576117526,-64.5456887371347
VILLA DEL DIQUE,14,007,290,14007290000,LC,-32.1696837164743,-64.4567952849232
VILLA EL TALA,14,007,300,14007300000,LC,-32.2542673612565,-64.5850039184628
VILLA GENERAL BELGRANO,14,007,310,14007310000,LS,-31.9808236449718,-64.5606191505919
VILLA LA RIVERA,14,007,320,14007320000,LS,-32.2667329359208,-64.5204928765463
VILLA QUILLINZO,14,007,330,14007330000,LS,-32.2384365356542,-64.5210498971139
VILLA RUMIPAL,14,007,340,14007340000,LC,-32.1893813417324,-64.4792063354191
VILLA YACANTO,14,007,360,14007360000,LS,-32.1037825310006,-64.7541028295247
JARDIN ARENALES,14,014,010,14014010001,E,-31.3686406343815,-64.0603031964104
LA FLORESTA,14,014,010,14014010002,E,-31.3961494977945,-64.0609143527134
CORDOBA,14,014,010,14014010003,E,-31.4177432635316,-64.189601351685
AGUA DE ORO,14,021,010,14021010000,LC,-31.058228127494,-64.2955793576311
ASCOCHINGA,14,021,020,14021020000,LS,-30.9594645513035,-64.2754165610863
BARRIO NUEVO RIO CEBALLOS,14,021,025,14021025000,LC,-31.1980230004722,-64.2887924252949
CANTERAS EL SAUCE,14,021,030,14021030000,LC,-31.0864140054075,-64.3145341004157
CASA BAMBA,14,021,040,14021040000,LS,-31.3429017095306,-64.3992718801553
COLONIA CAROYA,14,021,050,14021050000,LC,-31.0172322466264,-64.066728610829
COLONIA TIROLESA,14,021,060,14021060000,LS,-31.2357859283773,-64.0672541009396
COLONIA VICENTE AGUERO,14,021,070,14021070000,LS,-31.0277849308523,-64.019045653731
VILLA CORAZON DE MARIA,14,021,075,14021075000,LS,-31.4435294401245,-63.9963793951592
CORRAL QUEMADO,14,021,080,14021080000,LS,-30.9890353478112,-64.3778448899044
COUNTRY CHACRAS DE LA VILLA,14,021,090,14021090001,E,-31.2982310728982,-64.2371416516445
COUNTRY SAN ISIDRO,14,021,090,14021090002,E,-31.3055336354525,-64.2480169288216
EL MANZANO,14,021,110,14021110000,LC,-31.0817617139175,-64.2998324164847
ESTACION COLONIA TIROLESA,14,021,120,14021120000,LS,-31.2735550500587,-64.0150545730464
GENERAL PAZ,14,021,130,14021130000,LS,-31.1341189126982,-64.1410056588479
JESUS MARIA,14,021,140,14021140000,LC,-30.9811937384049,-64.095771286873
DUMESNIL,14,021,150,14021150001,E,-31.3321162961153,-64.3336598560636
LA CALERA,14,021,150,14021150002,E,-31.3430963762885,-64.3302275470709
EL DIQUECITO,14,021,150,14021150003,E,-31.3589143636745,-64.3650932467319
LA GRANJA,14,021,160,14021160000,LC,-31.0054374122172,-64.2616783510445
LA MORADA,14,021,165,14021165000,LC,-31.3050726647191,-64.2625844071662
LA PUERTA,14,021,170,14021170000,LS,-31.1419300602666,-64.0402188172603
LAS CORZUELAS,14,021,175,14021175000,LS,-31.240896079449,-64.2618872007094
LOS MOLLES,14,021,180,14021180000,LS,-31.0167070305726,-64.225388080483
MALVINAS ARGENTINAS,14,021,190,14021190000,LS,-31.3677025435362,-64.0503196448495
MENDIOLAZA,14,021,200,14021200000,LC,-31.2634679794013,-64.3038336466706
MI GRANJA,14,021,210,14021210000,LS,-31.3501106609981,-63.9996450992295
PAJAS BLANCAS,14,021,220,14021220000,LS,-31.2146356684786,-64.2768259906649
RIO CEBALLOS,14,021,230,14021230000,LC,-31.1748535571499,-64.3096761754849
SALDAN,14,021,240,14021240000,LC,-31.3142696814132,-64.3129043036137
EL PUEBLITO,14,021,250,14021250001,E,-31.1065564116392,-64.2971945109864
SALSIPUEDES,14,021,250,14021250002,E,-31.1349269310989,-64.2873331074367
SANTA ELENA,14,021,260,14021260000,LS,-31.2593058004875,-64.0753189644633
TINOCO,14,021,270,14021270000,LS,-31.1238790204144,-63.8923777817115
UNQUILLO,14,021,280,14021280000,LC,-31.2319725034056,-64.3177425598673
VILLA ALLENDE,14,021,290,14021290000,LC,-31.2922067561376,-64.2950077746202
VILLA CERRO AZUL,14,021,300,14021300000,LS,-31.0702139869894,-64.3197333591217
GUIÑAZU NORTE,14,021,310,14021310001,E,-31.3067152892491,-64.1703253616993
PARQUE NORTE,14,021,310,14021310002,E,-31.3000754366056,-64.1767428650772
1 DE AGOSTO,14,021,310,14021310004,E,-31.306907347736,-64.1785314598263
ALMIRANTE BROWN,14,021,310,14021310005,E,-31.3075672143524,-64.1814827461648
CIUDAD DE LOS NIÑOS,14,021,310,14021310006,E,-31.2957196524063,-64.1768685276575
VILLA PASTORA,14,021,310,14021310007,E,-31.306907347736,-64.1785314598263
JUAREZ CELMAN,14,021,320,14021320001,E,-31.2570227263756,-64.1651661967333
VILLA LOS LLANOS,14,021,320,14021320002,E,-31.2757010937435,-64.1626835394284
ALTO DE LOS QUEBRACHOS,14,028,010,14028010000,LS,-30.5409658147192,-65.0384387721916
BAÑADO DE SOTO,14,028,020,14028020000,LS,-30.8044357869451,-65.0436620185917
CANTERAS QUILPO,14,028,030,14028030000,LS,-30.8666932853441,-64.6829010647536
CRUZ DE CAÑA,14,028,040,14028040000,LS,-31.0662466251544,-64.9425321672363
CRUZ DEL EJE,14,028,050,14028050000,LS,-30.7218592173102,-64.8077377312137
EL BRETE,14,028,060,14028060000,LS,-30.6722100581192,-64.8699070292303
EL RINCON,14,028,070,14028070000,LS,-30.7397207125925,-64.6484924752741
GUANACO MUERTO,14,028,080,14028080000,LS,-30.4794131800612,-65.0597627738017
LA BANDA,14,028,090,14028090000,LS,-30.7628592235779,-64.6459839334075
LA BATEA,14,028,100,14028100000,LS,-30.4417646532675,-65.4238386532105
LA HIGUERA,14,028,110,14028110000,LS,-31.0139548417914,-65.1020313666951
LAS CAÑADAS,14,028,120,14028120000,LS,-30.9332479488458,-64.7189758691612
LAS PLAYAS,14,028,130,14028130000,LS,-30.6895900139602,-64.8508831281017
LOS CHAÑARITOS,14,028,140,14028140000,LS,-30.5724823864554,-64.9410778222467
MEDIA NARANJA,14,028,150,14028150000,LS,-30.6233104657952,-64.9515406139404
PASO VIEJO,14,028,160,14028160000,LS,-30.7686835768001,-65.1864700189142
SAN MARCOS SIERRA,14,028,170,14028170000,LS,-30.7803420622583,-64.6468515131076
SERREZUELA,14,028,180,14028180000,LS,-30.6392026300348,-65.3813009621884
TUCLAME,14,028,190,14028190000,LS,-30.7485284753417,-65.2375410689391
VILLA DE SOTO,14,028,200,14028200000,LS,-30.852977256889,-64.9924997261449
DEL CAMPILLO,14,035,010,14035010000,LS,-34.3760847098309,-64.4945399243505
ESTACION LECUEDER,14,035,020,14035020000,LS,-34.4964110409998,-64.8094621973323
HIPOLITO BOUCHARD,14,035,030,14035030000,LS,-34.7223142041085,-63.508013061936
HUINCA RENANCO,14,035,040,14035040000,LS,-34.8397251237332,-64.3724876795015
ITALO,14,035,050,14035050000,LS,-34.7911820710534,-63.781208388865
MATTALDI,14,035,060,14035060000,LS,-34.4803867338234,-64.1695033049234
NICOLAS BRUZZONE,14,035,070,14035070000,LS,-34.4382295005707,-64.3383707319069
ONAGOITY,14,035,080,14035080000,LS,-34.7703021224105,-63.67032307176
PINCEN,14,035,090,14035090000,LS,-34.8379291437488,-63.9155804696192
RANQUELES,14,035,100,14035100000,LS,-34.8436937843761,-64.0987740916452
SANTA MAGDALENA,14,035,110,14035110000,LS,-34.514736598064,-63.941510935076
VILLA HUIDOBRO,14,035,120,14035120000,LS,-34.8371817717375,-64.5833571665395
VILLA SARMIENTO,14,035,130,14035130000,LS,-34.1216195744231,-64.7240499364674
VILLA VALERIA,14,035,140,14035140000,LS,-34.3408530354994,-64.917844943457
ARROYO ALGODON,14,042,010,14042010000,LS,-32.2019665986816,-63.1627861860009
ARROYO CABRAL,14,042,020,14042020000,LS,-32.4889824965456,-63.4014794487713
AUSONIA,14,042,030,14042030000,LS,-32.6613825801545,-63.2447973807791
CHAZON,14,042,040,14042040000,LS,-33.0772598274988,-63.275435286184
ETRURIA,14,042,050,14042050000,LS,-32.9405157092885,-63.2472565147
LA LAGUNA,14,042,060,14042060000,LS,-32.8014149822474,-63.2440045658431
LA PALESTINA,14,042,070,14042070000,LS,-32.6155884790714,-63.4092352057166
LA PLAYOSA,14,042,080,14042080000,LS,-32.099694860079,-63.0325289648087
LAS MOJARRAS,14,042,090,14042090000,LS,-32.3029687109385,-63.2328555816575
LUCA,14,042,100,14042100000,LS,-32.5401979602741,-63.4762536378135
PASCO,14,042,110,14042110000,LS,-32.7470044961114,-63.3411254262064
SANABRIA,14,042,120,14042120000,LS,-32.527560043626,-63.2479616144958
SILVIO PELLICO,14,042,130,14042130000,LS,-32.2506338091324,-62.931650118919
TICINO,14,042,140,14042140000,LS,-32.6919271380136,-63.4353044375428
TIO PUJIO,14,042,150,14042150000,LS,-32.2863739057236,-63.3540179546817
VILLA ALBERTINA,14,042,160,14042160000,LS,-32.4342175966013,-63.1844586471364
VILLA MARIA,14,042,170,14042170000,LC,-32.4120836110321,-63.2499951238659
VILLA NUEVA,14,042,180,14042180000,LC,-32.4288251783807,-63.249359249877
VILLA OESTE,14,042,190,14042190000,LS,-32.4343319670367,-63.2875591644345
AVELLANEDA,14,049,010,14049010000,LS,-30.5946762022718,-64.2078393373412
CAÑADA DE RIO PINTO,14,049,020,14049020000,LS,-30.7759183214925,-64.2182971976615
CHUÑA,14,049,030,14049030000,LS,-30.4687274606224,-64.6712287665168
COPACABANA,14,049,040,14049040000,LS,-30.6113486219317,-64.5555688574614
DEAN FUNES,14,049,050,14049050000,LS,-30.4229409365773,-64.3516697664768
ESQUINA DEL ALAMBRE,14,049,060,14049060000,LS,-30.6016118281727,-64.9074033309966
LOS POZOS,14,049,080,14049080000,LS,-30.5154516695053,-64.2664449882016
OLIVARES DE SAN NICOLAS,14,049,090,14049090000,LS,-30.6020503748658,-64.8433653744314
QUILINO,14,049,100,14049100000,LS,-30.2159552214688,-64.5029777045333
SAN PEDRO DE TOYOS,14,049,110,14049110000,LS,-30.4541583004868,-64.4475688737827
VILLA GUTIERREZ,14,049,120,14049120000,LS,-30.6569511707803,-64.18195908099
VILLA QUILINO,14,049,130,14049130000,LS,-30.2101157475483,-64.4775674155262
ALEJANDRO ROCA,14,056,010,14056010000,LS,-33.3564514451723,-63.7205503922441
ASSUNTA,14,056,020,14056020000,LS,-33.6332962011646,-63.2259060913548
BENGOLEA,14,056,030,14056030000,LS,-33.0274173144801,-63.6719277875696
CARNERILLO,14,056,040,14056040000,LS,-32.9153142058652,-64.0256580552867
CHARRAS,14,056,050,14056050000,LS,-33.0241677315378,-64.0458262411649
EL RASTREADOR,14,056,060,14056060000,LS,-33.6644787319553,-63.5392368036406
GENERAL CABRERA,14,056,070,14056070000,LS,-32.8118910840567,-63.8736965709556
GENERAL DEHEZA,14,056,080,14056080000,LS,-32.7549291159098,-63.7850383518255
HUANCHILLAS,14,056,090,14056090000,LS,-33.6655227252595,-63.6372618363763
LA CARLOTA,14,056,100,14056100000,LS,-33.4201679372505,-63.2969802619056
LOS CISNES,14,056,110,14056110000,LS,-33.400060095449,-63.4716515559202
OLAETA,14,056,120,14056120000,LS,-33.0434821211836,-63.9085957407616
PACHECO DE MELO,14,056,130,14056130000,LS,-33.7600575092431,-63.4898589767857
PASO DEL DURAZNO,14,056,140,14056140000,LC,-33.1704554487519,-64.0478670082552
SANTA EUFEMIA,14,056,150,14056150000,LS,-33.1767529632621,-63.2820358699256
UCACHA,14,056,160,14056160000,LS,-33.0334392795817,-63.5082571588932
VILLA REDUCCION,14,056,170,14056170000,LS,-33.2014556304775,-63.8622207209792
ALEJO LEDESMA,14,063,010,14063010000,LS,-33.6076125942499,-62.6261405718946
ARIAS,14,063,020,14063020000,LS,-33.6411632781096,-62.402789011452
CAMILO ALDAO,14,063,030,14063030000,LS,-33.123740825534,-62.0965954602144
CAPITAN GENERAL BERNARDO O`HIGGINS,14,063,040,14063040000,LS,-33.247202805036,-62.269738358968
CAVANAGH,14,063,050,14063050000,LS,-33.478334898944,-62.3393464555145
COLONIA BARGE,14,063,060,14063060000,LS,-33.2585411549016,-62.6081628269792
COLONIA ITALIANA,14,063,070,14063070000,LS,-33.3119180942558,-62.1807987939012
COLONIA VEINTICINCO,14,063,080,14063080000,LS,-32.8883679292315,-61.9347825911775
CORRAL DE BUSTOS,14,063,090,14063090000,LS,-33.2816219895104,-62.1854508942409
CRUZ ALTA,14,063,100,14063100000,LS,-33.0069947278727,-61.8109726038419
GENERAL BALDISSERA,14,063,110,14063110000,LS,-33.1220171765357,-62.3037212558104
GENERAL ROCA,14,063,120,14063120000,LS,-32.7305115296671,-61.917138712509
GUATIMOZIN,14,063,130,14063130000,LS,-33.4617411292085,-62.4391434502619
INRIVILLE,14,063,140,14063140000,LS,-32.9438405235327,-62.2305487525417
ISLA VERDE,14,063,150,14063150000,LS,-33.2401071501959,-62.404426547367
LEONES,14,063,160,14063160000,LS,-32.658391411409,-62.299914625293
LOS SURGENTES,14,063,170,14063170000,LS,-32.9843826304567,-62.0237039883189
MARCOS JUAREZ,14,063,180,14063180000,LS,-32.6913099811557,-62.1057946726991
MONTE BUEY,14,063,190,14063190000,LS,-32.9175280341379,-62.4576576002351
SAIRA,14,063,210,14063210000,LS,-32.406411636801,-62.1029831790036
SALADILLO,14,063,220,14063220000,LS,-32.9331604883654,-62.3428774336317
VILLA ELISA,14,063,230,14063230000,LS,-32.7487775757302,-62.3306744044274
CIENAGA DEL CORO,14,070,010,14070010000,LS,-31.0381142705456,-65.2775888503175
EL CHACHO,14,070,020,14070020000,LS,-30.8017974058313,-65.6440521440399
ESTANCIA DE GUADALUPE,14,070,030,14070030000,LS,-31.1242101609074,-65.2269002056273
GUASAPAMPA,14,070,040,14070040000,LS,-31.0975357099584,-65.3281875063158
LA PLAYA,14,070,050,14070050000,LS,-31.0350257440514,-65.3453122247049
SAN CARLOS MINAS,14,070,060,14070060000,LS,-31.175590415787,-65.1017054267171
TALAINI,14,070,070,14070070000,LS,-31.2496924733149,-65.1672000423356
TOSNO,14,070,080,14070080000,LS,-30.9499425576932,-65.3099277411768
CHANCANI,14,077,010,14077010000,LS,-31.4172820195639,-65.4453421341012
LAS PALMAS,14,077,020,14077020000,LS,-31.3800076236386,-65.2899757237495
LOS TALARES,14,077,030,14077030000,LS,-31.3754115021879,-65.0386011461094
SALSACATE,14,077,040,14077040000,LS,-31.3151616749444,-65.0910260595287
SAN GERONIMO,14,077,050,14077050000,LS,-31.3409519996631,-64.9131949666644
TALA CAÑADA,14,077,060,14077060000,LS,-31.3570289681593,-64.9764519289305
TANINGA,14,077,070,14077070000,LS,-31.3454000529726,-65.0801168738369
VILLA DE POCHO,14,077,080,14077080000,LS,-31.4880894840309,-65.2830353856188
GENERAL LEVALLE,14,084,010,14084010000,LS,-34.0098324798955,-63.9225367502507
LA CESIRA,14,084,020,14084020000,LS,-33.9518611160055,-62.9744894136507
LABOULAYE,14,084,030,14084030000,LS,-34.1236122063832,-63.388646306069
LEGUIZAMON,14,084,040,14084040000,LS,-34.2040788458157,-62.9768889543714
MELO,14,084,050,14084050000,LS,-34.3483191246018,-63.4471714447308
RIO BAMBA,14,084,060,14084060000,LS,-34.0511211181075,-63.7321532881296
ROSALES,14,084,070,14084070000,LS,-34.171790725852,-63.1534798469172
SAN JOAQUIN,14,084,080,14084080000,LS,-34.5106395562101,-63.7132746964365
SERRANO,14,084,090,14084090000,LS,-34.4699818959404,-63.5375595280644
VILLA ROSSI,14,084,100,14084100000,LS,-34.297937327836,-63.2685397142969
BARRIO SANTA ISABEL,14,091,010,14091010000,LS,-30.8375267087623,-64.5367004570805
BIALET MASSE,14,091,020,14091020001,E,-31.3214285741587,-64.4818703245544
SAN ROQUE DEL LAGO,14,091,020,14091020002,E,-31.3266874438793,-64.4544689502096
CABALANGO,14,091,030,14091030000,LS,-31.3931049014855,-64.5635652642982
CAPILLA DEL MONTE,14,091,040,14091040000,LS,-30.8563966713395,-64.526268881497
CASA GRANDE,14,091,050,14091050000,LC,-31.1697129911083,-64.4776214321437
CHARBONIER,14,091,060,14091060000,LS,-30.7720869099195,-64.5441595530858
COSQUIN,14,091,070,14091070000,LC,-31.240571224569,-64.4655312574209
