municipio_id,municipio_nombre,municipio_lat,municipio_lon,provincia_id
060007,ADOLFO ALSINA,-37.1963375143523791,-63.0560058448787188,06
060014,ADOLFO GONZALES CHAVES,-37.96422541453029,-60.2490776485677273,06
060021,ALBERTI,-35.036381795932563,-60.2828693081193023,06
060028,ALMIRANTE BROWN,-34.8355700988622559,-58.3673978494736829,06
060035,AVELLANEDA,-34.6782025943862209,-58.3411272128535074,06
060042,AYACUCHO,-37.0347821697162161,-58.4425813265356808,06
060049,AZUL,-36.7857719233293068,-59.6966521589399619,06
060056,BAHÍA BLANCA,-38.5808546732895081,-62.1656895327093935,06
060063,BALCARCE,-37.7142728192545675,-58.2720776956147972,06
060070,BARADERO,-33.932191456743638,-59.4929504876901518,06
060077,ARRECIFES,-34.0113151746223892,-60.062762527455277,06
060084,BENITO JUÁREZ,-37.5852783155949552,-59.8883008698795365,06
060091,BERAZATEGUI,-34.8179736855798581,-58.155262691914686,06
060098,BERISSO,-34.9094634802474246,-57.8283887071809488,06
060105,BOLÍVAR,-36.2982217499892599,-61.1496836148107903,06
060112,BRAGADO,-35.0610928531070556,-60.6042295511118212,06
060119,BRANDSEN,-35.2221104711750712,-58.1760719473086141,06
060126,CAMPANA,-34.138195728791203,-58.8830222693034244,06
060134,CAÑUELAS,-35.1450252367713887,-58.6907790273655081,06
060140,CAPITÁN SARMIENTO,-34.1497065018664898,-59.8548037960898469,06
060147,CARLOS CASARES,-35.7496551260772364,-61.3737522686863173,06
060154,CARLOS TEJEDOR,-35.3794889207729568,-62.4295611893428841,06
060161,CARMEN DE ARECO,-34.4067983092212728,-59.8842434040916984,06
060168,CASTELLI,-36.0416694003038316,-57.6570625693146255,06
060175,COLÓN,-33.8860220920301245,-61.0633674925170027,06
060182,CORONEL DE MARINA LEONARDO ROSALES,-38.8488346485234644,-61.836044658144786,06
060189,CORONEL DORREGO,-38.6704811465080383,-61.0956539726773684,06
060196,CORONEL PRINGLES,-38.1477437843901939,-61.2646589620305377,06
060203,CORONEL SUÁREZ,-37.5325532169013911,-61.8893137767698107,06
060210,CHACABUCO,-34.6184039263125669,-60.3539279007251821,06
060218,CHASCOMÚS,-35.6187689428965868,-57.9043202817548845,06
060224,CHIVILCOY,-34.9157089757003831,-59.9584822196811089,06
060231,DAIREAUX,-36.6405459243248615,-61.8914171279050009,06
060238,DOLORES,-36.3986615535860807,-57.6326112996264897,06
060245,ENSENADA,-34.8422541243278303,-57.9789322374943481,06
060252,ESCOBAR,-34.3287181500879939,-58.771128146736622,06
060260,ESTEBAN ECHEVERRÍA,-34.8312099703342426,-58.4769690254140144,06
060266,EXALTACIÓN DE LA CRUZ,-34.2951491690699157,-59.1559117007684492,06
060270,EZEIZA,-34.8758213531443459,-58.5648395364286571,06
060274,FLORENCIO VARELA,-34.8778729879112319,-58.2586377649204366,06
060277,FLORENTINO AMEGHINO,-34.8738967496734205,-62.4013534701345591,06
060280,GENERAL ALVARADO,-38.2027130466248721,-58.072248572211123,06
060287,GENERAL ALVEAR,-36.0345220351901929,-60.1333612561515594,06
060294,GENERAL ARENALES,-34.2374596713144967,-61.283800624238161,06
060301,GENERAL BELGRANO,-35.8349745328235443,-58.6980461310919068,06
060308,GENERAL GUIDO,-36.6659831489806578,-57.9957841116939505,06
060315,GENERAL JUAN MADARIAGA,-37.1532136524969516,-57.2307866338234845,06
060322,GENERAL LA MADRID,-37.3557097661662709,-61.3442438803068413,06
060329,GENERAL LAS  HERAS,-34.9094258328137101,-58.9958733938567121,06
060336,GENERAL LAVALLE,-36.6518890133330757,-56.9422695810825488,06
060343,GENERAL PAZ,-35.4662020729312886,-58.3900057061752165,06
060351,GENERAL PINTO,-34.6683135253940904,-62.0397484845501452,06
060357,GENERAL PUEYRREDÓN,-37.9656760017007926,-57.7431440390759505,06
060364,GENERAL RODRÍGUEZ,-34.6503494927057289,-58.9879503249051709,06
060371,GENERAL SAN MARTÍN,-34.5526490761277785,-58.5643145358558002,06
060385,GENERAL VIAMONTE,-34.9975699247819563,-61.0501968347290855,06
060392,GENERAL VILLEGAS,-34.7687371056865118,-62.9535454568401889,06
060399,GUAMINÍ,-36.8905500665857815,-62.4187740896091654,06
060406,HIPÓLITO YRIGOYEN,-36.2593312232241018,-61.6600936665535002,06
060408,HURLINGHAM,-34.5992140053732982,-58.649694360634939,06
060410,ITUZAINGÓ,-34.6360018167543302,-58.688758335266705,06
060412,JOSÉ C. PAZ,-34.5118758903444913,-58.7776710941742664,06
060413,JUNÍN,-34.5461283360390254,-61.005494070548778,06
060420,LA COSTA,-36.6782018340746276,-56.7189105106818516,06
060427,LA MATANZA,-34.7701647288425235,-58.62544869389599,06
060434,LANÚS,-34.7057824914421289,-58.3954484986823346,06
060441,LA PLATA,-35.0034938071387742,-58.018027499107454,06
060448,LAPRIDA,-37.5155525089772368,-60.7680626719213137,06
060455,LAS FLORES,-36.0157017377305024,-59.1769657671575828,06
060462,LEANDRO N. ALEM,-34.4979563497469996,-61.6129309245572045,06
060466,LEZAMA,-35.8494190496267251,-57.8957525655299534,06
060469,LINCOLN,-35.070384883325957,-61.6827618200122032,06
060476,LOBERÍA,-38.0897033467580997,-58.6939656644914507,06
060483,LOBOS,-35.2195598528608755,-59.1458071242931425,06
060490,LOMAS DE ZAMORA,-34.755464339345167,-58.4240829326533841,06
060497,LUJÁN,-34.5676194636905834,-59.1585123543240883,06
060505,MAGDALENA,-35.1849498630335944,-57.6863916153998346,06
060511,MAIPÚ,-36.8865728370605979,-57.5861731541635038,06
060515,MALVINAS ARGENTINAS,-34.4873038284662741,-58.712132997198232,06
060518,MAR CHIQUITA,-37.4984341236930732,-57.6436183313312469,06
060525,MARCOS PAZ,-34.8137199832046491,-58.8480634347315217,06
060532,MERCEDES,-34.6971944325992894,-59.4208119840100437,06
060539,MERLO,-34.7108867791705293,-58.7418777656328999,06
060547,MONTE,-35.510370293631901,-58.7694635013319484,06
060553,MONTE HERMOSO,-38.9625722366799891,-61.2904738793275925,06
060560,MORENO,-34.6106171178240203,-58.8109232680034708,06
060568,MORÓN,-34.649141065317913,-58.6198433488167581,06
060574,NAVARRO,-35.0304083582524513,-59.429785480407979,06
060581,NECOCHEA,-38.2555189703715897,-59.1673660597249054,06
060588,9 DE JULIO,-35.4811905782560189,-60.9751157295026971,06
060595,OLAVARRÍA,-36.8567012129546185,-60.6707349373353608,06
060602,PATAGONES,-40.1973250421230262,-62.852908591203331,06
060609,PEHUAJÓ,-35.8833833438579362,-61.9271985156994305,06
060616,PELLEGRINI,-36.2709141317701267,-63.2257388675913319,06
060623,PERGAMINO,-33.8358155353661232,-60.5450748689576059,06
060630,PILA,-36.2023512628960589,-58.3408970254988404,06
060638,PILAR,-34.4481990221196099,-58.9034413925772711,06
060644,PINAMAR,-37.1099458733890231,-56.8696753983417906,06
060648,PRESIDENTE PERÓN,-34.9298313021931861,-58.3980912466830446,06
060651,PUÁN,-38.0746044476757106,-63.0577463401746385,06
060655,PUNTA INDIO,-35.4261581088970772,-57.3996034517523412,06
060658,QUILMES,-34.7350141996908661,-58.2768874201613514,06
060665,RAMALLO,-33.587297239000975,-60.0574845905693806,06
060672,RAUCH,-36.5722509524193171,-58.944406130217196,06
060679,RIVADAVIA,-35.580962730232379,-63.0945777162383905,06
060686,ROJAS,-34.1926035952585607,-60.7879706568364071,06
060693,ROQUE PÉREZ,-35.4811110714387681,-59.3595940527063277,06
060700,SAAVEDRA,-37.7710550160994956,-62.4351452974673151,06
060707,SALADILLO,-35.6765966680225759,-59.7037033020054153,06
060714,SALTO,-34.2708350525696872,-60.3051825663450458,06
060721,SALLIQUELÓ,-36.6710137553166717,-63.0491259803333861,06
060728,SAN ANDRÉS DE GILES,-34.437785158638377,-59.4732938848478128,06
060735,SAN ANTONIO DE ARECO,-34.2206591685118653,-59.5193792218302207,06
060742,SAN CAYETANO,-38.3886180658491512,-59.5866369475027895,06
060749,SAN FERNANDO,-34.1512700249479906,-58.5459540333814843,06
060756,SAN ISIDRO,-34.4869499670190933,-58.537264852252278,06
060760,SAN MIGUEL,-34.5520919648350926,-58.6917055208825857,06
060763,SAN NICOLÁS,-33.482554134046417,-60.2929537316225392,06
060770,SAN PEDRO,-33.7819425849293751,-59.7825917634815625,06
060778,SAN VICENTE,-35.0704596398936133,-58.4319219645129095,06
060784,SUIPACHA,-34.7485629683303827,-59.7034737442182148,06
060791,TANDIL,-37.3356554181577138,-59.1818055777780074,06
060798,TAPALQUÉ,-36.3471383108251089,-60.1308804386321327,06
060805,TIGRE,-34.3815893993370807,-58.5994539881249565,06
060812,TORDILLO,-36.3908002975692,-57.274682865625536,06
060819,TORNQUIST,-38.2557858016680257,-62.290424980392352,06
060826,TRENQUE LAUQUEN,-36.056435273997586,-62.6346332497416256,06
060833,TRES ARROYOS,-38.5116665533312101,-60.2376664741025678,06
060840,TRES DE FEBRERO,-34.5959797363173251,-58.5790926022538869,06
060847,TRES LOMAS,-36.497315271652603,-62.8634418902353929,06
060854,25 DE MAYO,-35.5265113228111531,-60.2301576569223087,06
060861,VICENTE LÓPEZ,-34.5265131808300012,-58.5044695897730165,06
060868,VILLA GESELL,-37.3705193836345515,-57.0658445952167099,06
060875,VILLARINO,-39.1296648457137906,-62.726802430841559,06
060882,ZÁRATE,-33.9971401820230099,-59.128470961008972,06
100007,EL RODEO,-28.2412100324274107,-65.9465483637507077,10
100014,LA PUERTA,-28.1588888812784042,-65.8053978996786668,10
100021,LAS JUNTAS,-28.0518484074729848,-65.9674435724261201,10
100028,LOS VARELA,-27.8547966718317035,-65.9246262281669004,10
100035,ANCASTI,-28.9266654118728894,-65.5038099239122715,10
100042,ACONQUIJA,-27.5035405012381418,-66.0582983765108338,10
100049,ANDALGALÁ,-27.5535805469094974,-66.4219289567448072,10
100056,ANTOFAGASTA DE LA SIERRA,-25.9455797002437443,-67.6777645029397092,10
100063,BELÉN,-27.7111201189353658,-66.8474922447290254,10
100070,CORRAL QUEMADO,-26.9802628151927522,-67.0141675035392836,10
100077,HUALFÍN,-27.2327739205627388,-66.6867349793276674,10
100084,LONDRES,-27.8537703637582759,-67.1506538679793152,10
100091,POZO DE PIEDRA,-27.5461401411272391,-67.1694075115444633,10
100098,PUERTA DE CORRAL QUEMADO,-27.2602279002263259,-67.1391373436803605,10
100105,PUERTA DE SAN JOSÉ,-27.4335053633268018,-66.9462225585684507,10
100112,SAN FERNANDO,-27.3077227595379277,-66.8569085255965803,10
100119,VILLA VIL,-26.5488558545602409,-66.807575587208774,10
100126,CAPAYÁN,-29.0365947800972428,-65.8955424431811281,10
100133,HUILLAPIMA,-28.6559829253265868,-65.9135566327798159,10
100140,SAN FERNANDO DEL  VALLE DE CATAMARCA,-28.4104559393525413,-65.8362002957156562,10
100147,EL ALTO,-28.4229702192833571,-65.4303983855818529,10
100154,TAPSO,-28.44723070821302,-65.199753347927583,10
100161,FRAY MAMERTO ESQUIÚ,-28.3329401551220705,-65.7309008581155183,10
100168,ICAÑO,-28.8613214720859474,-65.1509267339569931,10
100175,RECREO,-29.5256258739343664,-65.2019736615272478,10
100182,PACLÍN,-28.110049553415184,-65.6738760474971741,10
100185,MUTQUÍN,-28.310697521461119,-66.1479259632377818,10
100189,POMÁN,-28.4116754719959559,-66.4313284959768282,10
100196,SAUJIL,-28.0574573700850891,-66.4024102061299715,10
100203,SAN JOSÉ,-26.8778834110203348,-66.2971211607981701,10
100210,SANTA MARÍA,-26.4929339197445906,-66.1496524320488106,10
100213,LOS ALTOS,-28.0392957521346879,-65.4509018337532211,10
100217,SANTA ROSA,-28.1157416876419965,-65.2407236956114502,10
100224,FIAMBALÁ,-27.3742769412863645,-68.0496004163813382,10
100231,TINOGASTA,-28.0802347313231522,-67.5384662106014844,10
100238,VALLE VIEJO,-28.5987180771599903,-65.7071874333265384,10
140007,EMBALSE,-32.2156832682067389,-64.3816869058496479,14
140014,LA CRUZ,-32.3103751578825964,-64.4805613408481975,14
140021,LOS CÓNDORES,-32.2941267136031556,-64.2631745771008696,14
140028,RÍO DE LOS  SAUCES,-32.5008531571475316,-64.7121378346359819,14
140035,SANTA ROSA DE CALAMUCHITA,-32.0753029618980179,-64.5467001962975218,14
140042,VILLA DEL  DIQUE,-32.1348568466706013,-64.4331269585082964,14
140049,VILLA GENERAL BELGRANO,-31.9843739756544885,-64.5854153620909415,14
140056,SAN AGUSTÍN,-31.9727259844157814,-64.3764401661817942,14
140063,VILLA RUMIPAL,-32.1625608439289365,-64.4858600100431829,14
140070,VILLA YACANTO,-32.1225394461470302,-64.7855875348448933,14
140077,CÓRDOBA,-31.4170520000062794,-64.1832233457647447,14
140084,AGUA DE ORO,-31.050024501548549,-64.3259937691714896,14
140091,COLONIA CAROYA,-31.0541541597820618,-64.0859537870840512,14
140098,COLONIA TIROLESA,-31.2182550189733199,-64.0295107530514542,14
140105,ESTACIÓN JUÁREZ CELMAN,-31.2437846823994292,-64.1793986490353632,14
140112,JESÚS MARÍA,-30.9830362325548698,-64.1282788962145105,14
140119,LA CALERA,-31.3267269836109428,-64.3737475437180677,14
140126,LA GRANJA,-31.0000989874001647,-64.2753880432832858,14
140133,MALVINAS ARGENTINAS,-31.3908457182217369,-64.010456669489102,14
140140,MENDIOLAZA,-31.2585432498764746,-64.2848467061891711,14
140147,RÍO CEBALLOS,-31.172982663730302,-64.3191044525332245,14
140154,SALDÁN,-31.3147407774699396,-64.3108946086378808,14
140161,SALSIPUEDES,-31.124816653376616,-64.3006220022837596,14
140168,UNQUILLO,-31.2192351356384563,-64.3345156620741108,14
140175,VILLA ALLENDE,-31.2723301734497987,-64.33614569130809,14
140182,CRUZ DEL  EJE,-30.7457001539119119,-64.7749805365373703,14
140189,SAN MARCOS SIERRAS,-30.767318831143335,-64.6511803149358997,14
140196,SERREZUELA,-30.5673524944776958,-65.3514532144563418,14
140203,VILLA DE SOTO,-30.8690814087167631,-65.0073977623670487,14
140210,BUCHARDO,-34.7236789574211784,-63.5073115948870779,14
140217,DEL CAMPILLO,-34.3738504142087535,-64.5317794477809343,14
140224,HUINCA RENANCÓ,-34.8375108995880964,-64.3759223052139049,14
140231,ITALÓ,-34.7873745654291469,-63.7809993095978811,14
140238,JOVITA,-34.5175313443449028,-63.9431016058545865,14
140245,MATTALDI,-34.4853031976435389,-64.1779147615067558,14
140252,VILLA HUIDOBRO,-34.8396563912000374,-64.5822038824256026,14
140259,VILLA VALERIA,-34.3414551616035695,-64.9192025001429158,14
140273,ARROYO CABRAL,-32.4891001131456463,-63.4014050637080544,14
140280,AUSONIA,-32.5890346393291708,-63.2473324157256087,14
140287,CHAZÓN,-33.0779841520432711,-63.2744840417553576,14
140294,ETRURIA,-32.9395872460527457,-63.2476339192828121,14
140301,LA LAGUNA,-32.8019955201198314,-63.2462465865663432,14
140308,LA PALESTINA,-32.6146851668885773,-63.4099507025161273,14
140315,LA PLAYOSA,-32.0989683198623155,-63.0325027208143069,14
140322,LUCA,-32.5401247632302315,-63.4773914681507563,14
140329,PASCO,-32.7453423023259091,-63.3402135333334115,14
140336,SILVIO PELLICO,-32.251178928708832,-62.9325509169842903,14
140343,TICINO,-32.6948787489747659,-63.4350474292111102,14
140350,TÍO PUJIO,-32.2799480172568849,-63.3517757301300364,14
140357,VILLA MARÍA,-32.4031012852998543,-63.236630316321623,14
140364,VILLA NUEVA,-32.4348778297543134,-63.2624459627598199,14
140371,DEÁN FUNES,-30.4227482302615151,-64.3546756378303826,14
140378,QUILINO,-30.2204887977381738,-64.4778221489410299,14
140385,ALEJANDRO ROCA,-33.3442762498230891,-63.7203299331365471,14
140392,BENGOLEA,-33.0277675204366119,-63.6714870729591453,14
140399,CARNERILLO,-32.9166449024458103,-64.0239837960828737,14
140406,CHARRAS,-33.0231292173333557,-64.0481926881725485,14
140413,GENERAL CABRERA,-32.8126298411652826,-63.870744690722205,14
140420,GENERAL DEHEZA,-32.7619158521805929,-63.792428458282842,14
140427,HUANCHILLA,-33.6666603550782071,-63.6351900273338345,14
140434,LA CARLOTA,-33.4137059352071404,-63.2963774632445819,14
140441,LOS CISNES,-33.3762768113126072,-63.4708798480832357,14
140448,OLAETA,-33.0441850270043886,-63.9100511143704253,14
140455,REDUCCIÓN,-33.2028095475754199,-63.8627303675096059,14
140462,SANTA EUFEMIA,-33.1935446312946283,-63.2841258885037377,14
140469,UCACHA,-33.0317994602079423,-63.5071355437660472,14
140476,ALEJO LEDESMA,-33.5987357093936154,-62.6238535114420003,14
140483,ARIAS,-33.6394688790658662,-62.4028701481866079,14
140490,CAMILO ALDAO,-33.1268229039745066,-62.0953653170540107,14
140497,CAPITÁN GENERAL B. O'HIGGINS,-33.2490438734254354,-62.2690389534894848,14
140504,CAVANAGH,-33.4774018022539792,-62.3387928906848785,14
140511,COLONIA ITALIANA,-33.3065740201284868,-62.1813642349834126,14
140518,CORRAL DE BUSTOS,-33.2798880110050348,-62.1962096731033753,14
140525,CRUZ ALTA,-33.0062840802658712,-61.8111079222228526,14
140532,GENERAL BALDISSERA,-33.1235893332124434,-62.3006086559546262,14
140539,GENERAL ROCA,-32.7275119390042875,-61.9145008159752877,14
140546,GUATIMOZÍN,-33.4605679567116638,-62.4339429159079558,14
140553,INRIVILLE,-32.9444827064459034,-62.22323059155935,14
140560,ISLA VERDE,-33.2384139982862763,-62.4029816960787613,14
140567,LEONES,-32.6533880566012371,-62.2977757843412334,14
140574,LOS SURGENTES,-32.9743449135050568,-62.0146845594700977,14
140581,MARCOS JUÁREZ,-32.6834634699150541,-62.105318455173169,14
140588,MONTE BUEY,-32.9169889907274253,-62.45314991256339,14
140595,SAIRA,-32.4083063626491139,-62.1010565233928062,14
140602,SAN CARLOS MINAS,-31.1637575067469257,-65.0830995258614848,14
140609,SALSACATE,-31.3393766709380195,-65.1282172380765729,14
140616,GENERAL LEVALLE,-34.0132450114981921,-63.9268210537680659,14
140623,LA CESIRA,-33.9522414433711788,-62.9759295184543717,14
140630,LABOULAYE,-34.1281097677491019,-63.3878358370211075,14
140637,MELO,-34.3493518732702086,-63.4365776529173857,14
140644,ROSALES,-34.1747592562317024,-63.1529797656942691,14
140651,SERRANO,-34.4755850792196696,-63.5333659644618365,14
140658,VILLA ROSSI,-34.2976037934499942,-63.2704154896918922,14
140665,BIALET MASSÉ,-31.3121237322311039,-64.5025780020643253,14
140672,CAPILLA DEL  MONTE,-30.8478650515881334,-64.5261710599970968,14
140679,COSQUÍN,-31.230124763412153,-64.6078303478470843,14
140686,HUERTA GRANDE,-31.0720105518089866,-64.4965933938749458,14
140693,LA CUMBRE,-30.9742621645479588,-64.5043560850964326,14
140700,LA FALDA,-31.1037750919778979,-64.5246847485322093,14
140707,LOS COCOS,-30.9267368141278425,-64.5025995122289402,14
140714,SAN ESTEBAN,-30.9214339905767233,-64.5316310918849609,14
140721,SANTA MARÍA DE PUNILLA,-31.2670502928977783,-64.5162902727265077,14
140728,TANTI,-31.3619877805977794,-64.5694692159223962,14
140735,VALLE HERMOSO,-31.1323725662679749,-64.492099049532797,14
140742,VILLA CARLOS PAZ,-31.4206918540758942,-64.5088844540427431,14
140749,VILLA GIARDINO,-31.0401293204289885,-64.5134379250386729,14
140756,ACHIRAS,-33.1696958774563768,-64.9783311643432455,14
140763,ADELIA MARÍA,-33.6333900311038789,-64.0187063512159966,14
140770,ALCIRA,-32.7517122016284716,-64.3355358980883949,14
140777,ALPA CORRAL,-32.6827523172340335,-64.7275918344128058,14
140784,BERROTARÁN,-32.4480078457599674,-64.388909862118723,14
140791,BULNES,-33.5042811125422588,-64.6777003609733327,14
140798,CHAJÁN,-33.556221670736349,-65.0045692987121697,14
140805,CORONEL BAIGORRIA,-32.8535584171105697,-64.3679739325011582,14
140812,CORONEL MOLDES,-33.6213761643601146,-64.5957374156971156,14
140819,ELENA,-32.5699065743136131,-64.3939492510854592,14
140826,LA CAUTIVA,-33.9820493176756173,-64.0855019234334407,14
140833,LAS ACEQUIAS,-33.2801000794919943,-63.9782972324100783,14
140840,LAS HIGUERAS,-33.1041248833880957,-64.294437538039773,14
140847,LAS VERTIENTES,-33.2821528731581111,-64.5798008584752523,14
140854,MONTE DE LOS  GAUCHOS,-33.6360402337959741,-63.9021542900956163,14
140861,RÍO CUARTO,-33.1155580023709888,-64.3570883812807466,14
140868,SAMPACHO,-33.3725117758152479,-64.708108701399226,14
140875,SAN BASILIO,-33.497539526671936,-64.315456251836423,14
140882,SANTA CATALINA,-33.2024080778911213,-64.4262539399711613,14
140889,TOSQUITA,-33.8214399062637909,-64.4611155218708802,14
140896,VICUÑA MACKENNA,-33.9288149320524823,-64.4072934720761197,14
140903,LA PARA,-30.8971059716297702,-62.9963436299142288,14
140910,LA PUERTA,-30.8889405990295209,-63.254493767119456,14
140917,MONTE CRISTO,-31.3145501675442652,-63.900995998140445,14
140924,OBISPO TREJO,-30.7769384027746113,-63.4166185018715112,14
140931,PIQUILLÍN,-31.3014822797673062,-63.7592227132230818,14
140938,RÍO PRIMERO,-31.3296360408912342,-63.6234759919454405,14
140945,SANTA ROSA DE RÍO PRIMERO,-31.1533189906775121,-63.4030104122575651,14
140952,VILLA FONTANA,-30.8951889539232702,-63.1154326746593668,14
140959,SEBASTIÁN ELCANO,-30.1594216007126938,-63.5927415022851079,14
140966,VILLA DE MARÍA,-29.8941782214697334,-63.7251634049095443,14
140973,CALCHÍN,-31.66765437049634,-63.1974210579747293,14
140980,CALCHÍN OESTE,-31.862692509434531,-63.2781089159471364,14
140987,CAPILLA DEL  CARMEN,-31.5078552559626566,-63.3412198297322391,14
140994,CARRILOBO,-31.8688626120994876,-63.1151968886878265,14
141001,COLAZO,-31.9618836173472616,-63.3815414522131064,14
141008,COSTASACATE,-31.6470824674007609,-63.7622771614346107,14
141015,LAGUNA LARGA,-31.7757220077538776,-63.7859839452442046,14
141022,LAS JUNTURAS,-31.8295740966289813,-63.4501240234634949,14
141029,LUQUE,-31.646633582639236,-63.3411184061501729,14
141036,MANFREDI,-31.8442770336695915,-63.7430657929285474,14
141043,MATORRALES,-31.714960569613698,-63.5124530187689444,14
141050,ONCATIVO,-31.9151263882847083,-63.676002408206358,14
141057,PILAR,-31.6802864251569183,-63.8821893916395709,14
141064,POZO DEL MOLLE,-32.0191752758652797,-62.9178333970772314,14
141071,RÍO SEGUNDO,-31.644015791506785,-63.9009945616550539,14
141078,SANTIAGO TEMPLE,-31.3899995373349796,-63.4185697040229428,14
141085,VILLA DEL  ROSARIO,-31.5570088932438715,-63.5340745893100944,14
141092,MINA CLAVERO,-31.6760818624426825,-64.9145503162229573,14
141099,NONO,-31.8047247770572135,-65.0089907188352072,14
141106,SAN PEDRO,-31.8743510648851469,-65.24505849348445,14
141113,VILLA CURA BROCHERO,-31.7099063545720092,-65.0155388613376601,14
141120,VILLA SARMIENTO (S. A.),-34.1500199451458855,-64.7362850342390033,14
141127,LA PAZ,-32.2557108768273508,-65.0934018857064274,14
141134,SAN JAVIER Y YACANTO,-32.0189945410787971,-65.0356489768240351,14
141141,SAN JOSÉ,-31.9806239572522415,-65.3167014254429006,14
141148,VILLA DE LAS  ROSAS,-31.9394491625970183,-65.0365731182786391,14
141155,VILLA DOLORES,-31.9771247818656406,-65.201513126878055,14
141162,ALICIA,-31.9393591274177489,-62.465597486222876,14
141169,ALTOS DE CHIPIÓN,-30.9547219317202931,-62.3373302112666821,14
141176,ARROYITO,-31.4197877113034068,-63.0461064879716062,14
141183,BALNEARIA,-31.0090169258663835,-62.6695377581646298,14
141190,BRINKMANN,-30.8738051951415962,-62.0382117148240937,14
141197,COLONIA MARINA,-31.248885905754225,-62.3626031807012708,14
141204,COLONIA PROSPERIDAD,-31.6255205424056598,-62.3816472058384406,14
141211,COLONIA SAN BARTOLOMÉ,-31.5279808890142625,-62.7236406722185293,14
141218,COLONIA VIGNAUD,-30.8424347299693338,-61.9554557644487076,14
141225,DEVOTO,-31.4054517995146334,-62.3048792337849946,14
141232,EL ARAÑADO,-31.7420994285225255,-62.8946381603766724,14
141239,EL FORTÍN,-31.9696658576856798,-62.3017073883341581,14
141246,EL TÍO,-31.3889356919298272,-62.8225806131391593,14
141253,FREYRE,-31.1656648235175453,-62.0979078434039096,14
141260,LA FRANCIA,-31.4046082891521827,-62.6361489012367443,14
141267,LA PAQUITA,-30.9068096845911988,-62.2150441956889964,14
141274,LA TORDILLA,-31.2431510613549399,-63.0622120893957785,14
141281,LAS VARAS,-31.80372203275423,-62.6189189981064516,14
141288,LAS VARILLAS,-31.8753386744316636,-62.7085088077583706,14
141295,MARULL,-30.9962750605161013,-62.824461592665493,14
141302,MIRAMAR,-30.9171637587503803,-62.6691619837421641,14
141309,MORTEROS,-30.7117689159367622,-62.009153728931345,14
141316,PORTEÑA,-30.9889513794181823,-62.0632043172450096,14
141323,QUEBRACHO HERRADO,-31.5498828557019237,-62.227047967239308,14
141330,SACANTA,-31.6643044904366668,-63.0467526560951157,14
141337,SAN FRANCISCO,-31.4291183141885071,-62.1082677652082964,14
141344,SATURNINO MARÍA LASPIUR,-31.7034577338369878,-62.4833254315983453,14
141351,SEEBER,-30.9253280210718025,-62.019685075919476,14
141358,TRÁNSITO,-31.431324903411344,-63.1947377387049372,14
141365,VILLA CONCEPCIÓN DEL  TÍO,-31.3297975420494126,-62.8122061162710423,14
141372,ALTA GRACIA,-31.6506235252463206,-64.4436954878587329,14
141379,DESPEÑADEROS,-31.802373396354124,-64.3037279335541143,14
141386,LOZADA,-31.654609919927136,-64.093711769734,14
141393,MALAGUEÑO,-31.4598780400585696,-64.3967893605340009,14
141400,MONTE RALO,-31.9160854413817638,-64.2355903371876877,14
141407,TOLEDO,-31.5526503925745416,-64.0108138150316393,14
141414,SAN FRANCISCO DEL  CHAÑAR,-29.8335821929535712,-63.9388834433132018,14
141421,ALMAFUERTE,-32.2022805517205484,-64.2413981036841619,14
141428,COLONIA ALMADA,-32.0344936485778575,-63.8637834613237274,14
141435,CORRALITO,-32.0255900678864123,-64.1871324165761763,14
141442,DALMACIO VÉLEZ,-32.6124531244939391,-63.5838307311574198,14
141449,HERNANDO,-32.4298361512602469,-63.73197662565196,14
141456,JAMES CRAIK,-32.1653801707883176,-63.4614392143560053,14
141463,LAS PERDICES,-32.6989898408240407,-63.7067140965954621,14
141470,LOS ZORROS,-32.0450607687748814,-63.2063904788811968,14
141477,OLIVA,-32.048597888087123,-63.5570228461854398,14
141484,PAMPAYASTA SUD,-32.2615771632819204,-63.6532371104856551,14
141491,RÍO TERCERO,-32.16839348013022,-64.102708940200074,14
141498,TANCACHA,-32.2395132273511393,-63.9792575326274431,14
141505,VILLA ASCASUBI,-32.1694820041982084,-63.8898773171194776,14
141512,CAÑADA DE LUQUE,-30.7381485912167811,-63.725138408133958,14
141519,LAS PEÑAS,-30.5554859462904993,-64.0024875130835085,14
141526,SARMIENTO,-30.7749694403189835,-64.1199257245699528,14
141533,SINSACATE,-30.9422713589299079,-64.0806973366607764,14
141540,VILLA DEL  TOTORAL,-30.7095120032808815,-64.0569454757472556,14
141547,LAS ARRIAS,-30.3900762225366243,-63.5849095072048556,14
141554,LUCIO V. MANSILLA,-29.7949326862785355,-64.6680541082337328,14
141561,SAN JOSÉ DE LA DORMIDA,-30.3571542328117907,-63.9475675958769685,14
141568,SAN JOSÉ DE LAS  SALINAS,-30.0065939301357787,-64.5964266269363065,14
141575,SAN PEDRO NORTE,-30.2554577373608673,-64.2146114629846778,14
141582,VILLA TULUMBA,-30.3958819067891461,-64.1206106410777608,14
141589,ALTO ALEGRE,-32.3422198194663437,-62.8819564287190005,14
141596,BALLESTEROS,-32.54623769552596,-62.9807310033667065,14
141603,BALLESTEROS SUD,-32.5887950634732135,-63.0250790508917476,14
141610,BELL VILLE,-32.6187289822799187,-62.695039249489291,14
141617,BENJAMÍN GOULD,-33.5839636595370692,-62.7275448917718066,14
141624,CANALS,-33.5586948564452996,-62.8811407005031668,14
141631,CHILIBROSTE,-32.3326918177426137,-62.513414830941251,14
141638,CINTRA,-32.3087285653744445,-62.6517297624237841,14
141645,COLONIA BISMARCK,-33.3005078918634894,-62.7159959455751732,14
141652,IDIAZABAL,-32.8118251859774972,-63.0314306796737398,14
141659,JUSTINIANO POSSE,-32.8851156184589613,-62.68031377389417,14
141666,LABORDE,-33.1508319281253705,-62.8591932549994397,14
141673,MONTE LEÑA,-32.6073407618879472,-62.5887953092073914,14
141680,MONTE MAÍZ,-33.2059969112393887,-62.6035104209720714,14
141687,MORRISON,-32.5929163426720194,-62.8337927569311461,14
141694,NOETINGER,-32.3608072067663883,-62.3132776257757968,14
141701,ORDÓÑEZ,-32.8406260509866357,-62.8645079041339585,14
141708,PASCANAS,-33.1262394371826119,-63.0411760442871554,14
141715,PUEBLO ITALIANO,-33.8797412509002811,-62.8419046433190189,14
141722,SAN ANTONIO DE LITÍN,-32.2154566164448539,-62.6331396610770952,14
141729,SAN MARCOS SUD,-32.6262603360861121,-62.4804580153711484,14
141736,VIAMONTE,-33.7473048096682291,-63.0994810512003355,14
141743,WENCESLAO ESCALANTE,-33.1716374700177923,-62.7704160998211265,14
142007,AMBOY,-32.1764282380888602,-64.5750894423152602,14
142014,CALMAYO,-32.0456338882203369,-64.4583493455314738,14
142021,CAÑADA DEL  SAUCE,-32.3827196464222595,-64.6369274751007765,14
142028,LAS BAJADAS,-32.0921713040564356,-64.3402635611921596,14
142035,LAS CALERAS,-32.4017331649057567,-64.5188920061475244,14
142042,LOS MOLINOS,-31.8565529914793863,-64.3791077708500552,14
142049,LOS REARTES,-31.9153125304694356,-64.5898352613712774,14
142056,LUTTI,-32.3065734326663829,-64.7377888610420626,14
142063,SAN IGNACIO,-32.1516825639596675,-64.5469099126919019,14
142070,SEGUNDA USINA,-32.1752598435179564,-64.372692652633944,14
142077,VILLA AMANCAY,-32.2182599982267206,-64.5805601977720301,14
142084,VILLA CIUDAD PARQUE LOS  REARTES,-31.8897835985432643,-64.5215690751297046,14
142091,VILLA QUILLINZO,-32.241972279221514,-64.5299853710021978,14
142098,COLONIA VICENTE AGÜERO,-31.016667579395282,-64.0019545091750217,14
142105,EL MANZANO,-31.0820615291112432,-64.3382836028946485,14
142112,ESTACIÓN GENERAL PAZ,-31.1228499839104877,-64.1473438921362629,14
142119,MI GRANJA,-31.3275574709174087,-63.9790002860051885,14
142126,VILLA CERRO AZUL,-31.0717050292809915,-64.3300094291551261,14
142133,ALTO DE LOS  QUEBRACHOS,-30.5351780991221666,-65.122546508037658,14
142140,BAÑADO DE SOTO,-30.8036031227312357,-65.0550301741106836,14
142147,CRUZ DE CAÑA,-31.0828883237063778,-64.9475909508307865,14
142154,EL BRETE,-30.6562768261980345,-64.879843589184361,14
142161,GUANACO MUERTO,-30.4602024394052968,-65.0659885088885517,14
142168,LA BATEA,-30.4282384273219222,-65.268080003281554,14
142175,LA HIGUERA,-31.0154711503327007,-65.1033033166761896,14
142182,LAS CAÑADAS,-30.9742278112505396,-64.7644259351544065,14
142189,LAS PLAYAS,-30.7125399415491103,-64.851200542917752,14
142196,LOS CHAÑARITOS (C.D. EJE),-31.4014391052477002,-63.3341908709152577,14
142203,MEDIA NARANJA,-30.6312650658571251,-64.9392510631274433,14
142210,PASO VIEJO,-30.7663464619764646,-65.1910942537930964,14
142217,TUCLAME,-30.7468404971543308,-65.2357340089555748,14
142224,NICOLÁS BRUZZONE,-34.4416086343238845,-64.3382488459278505,14
142231,ONAGOITY,-34.7699095275566918,-63.6717128404407617,14
142238,PINCEN,-34.8383140184063791,-63.9175546184508647,14
142245,RANQUELES,-34.8429525115099068,-64.0999800172126299,14
142252,VILLA SARMIENTO (G.R.),-31.9200351681617356,-65.1928848099618676,14
142259,AVELLANEDA,-30.5973098047242793,-64.2284115066381247,14
142266,CAÑADA DE RÍO PINTO,-30.7405230006183814,-64.2526933568926921,14
142273,CHUÑA,-30.45497276420679,-64.6415044577513669,14
142280,COPACABANA,-30.6442603235698066,-64.5015919158184801,14
142287,LOS POZOS,-30.5184524118583766,-64.26490721731642,14
142294,OLIVARES DE SAN NICOLÁS,-30.5460582548383073,-64.87876658815442,14
142301,VILLA GUTIÉRREZ,-30.6956206838801648,-64.1911110471148589,14
142308,ASSUNTA,-33.6337692253497593,-63.2252758695141495,14
142315,EL RASTREADOR,-33.665457592161097,-63.5399472201015598,14
142322,PACHECO DE MELO,-33.7577742616375005,-63.4894551789837465,14
142329,PASO DEL  DURAZNO,-33.1488335972339385,-64.0213925904292438,14
142336,COLONIA BARGE,-33.2560592578889427,-62.6074772843902565,14
142343,SALADILLO,-32.9330379413915466,-62.3430346300725233,14
142350,VILLA ELISA,-32.8338792756203262,-62.2950011450932095,14
142357,CIÉNAGA DEL  CORO,-31.0053157543172055,-65.2173529646248369,14
142364,EL CHACHO,-30.8087116780106207,-65.4590362546606457,14
142371,ESTANCIA DE GUADALUPE,-31.1856303095221783,-65.2460012237226152,14
142378,GUASAPAMPA,-31.1346410780710485,-65.3098829147868827,14
142385,LA PLAYA,-30.9491510486569972,-65.3481568256985241,14
142392,TALAINI,-31.2400441687222923,-65.1738445719239792,14
142399,TOSNO,-30.9455846794061884,-65.2828381577686372,14
142406,CHANCANÍ,-31.4141204299091861,-65.4541355537760694,14
142413,LAS PALMAS,-31.3748540741685709,-65.3329790750063495,14
142420,LOS TALARES,-31.4025933536005262,-65.0582614564783341,14
142427,SAN GERÓNIMO,-31.3559936708057094,-64.9294145436899868,14
142434,TALA CAÑADA,-31.3589576280074454,-64.9982605968851743,14
142441,VILLA DE POCHO,-31.4730827915555516,-65.2841808159513874,14
142448,LEGUIZAMÓN,-34.2047912837600236,-62.9791788265996573,14
142455,RÍO BAMBA,-34.0601407054622314,-63.7340063162335966,14
142462,SAN JOAQUÍN,-34.5108814934930166,-63.7131847441999852,14
142469,CABALANGO,-31.4009006600680109,-64.5640472582906284,14
142476,CASA GRANDE,-31.1582887825210726,-64.4781393379559802,14
142483,CHARBONIER,-30.7610604781621753,-64.5633540903801162,14
142490,CUESTA BLANCA,-31.4850213972869533,-64.5984326274192853,14
142497,ESTANCIA VIEJA,-31.3861392102135959,-64.5263514335073012,14
142504,MAYU SUMAJ,-31.4660174565972675,-64.5496322149149506,14
142511,SAN ANTONIO DE ARREDONDO,-31.5250380100715581,-64.5441084512019501,14
142518,SAN ROQUE,-31.3514245506071596,-64.4504675476139681,14
142525,TALA HUASI,-31.4670111937151553,-64.5727841482700171,14
142532,VILLA PARQUE SIQUIMAN,-31.3521525399098095,-64.4926944882209341,14
142539,VILLA SANTA CRUZ DEL  LAGO,-31.3705588269762679,-64.5104902375029212,14
142546,VILLA RÍO ICHO CRUZ,-31.486607973037998,-64.561896419550763,14
142553,CHUCUL,-33.010848221375845,-64.1704416685286247,14
142560,"LA CAROLINA ""EL POTOSI""",-33.1890811194127764,-64.7267491840148637,14
142567,LAS ALBAHACAS,-32.8970347535301215,-64.8169079716601999,14
142574,LAS PEÑAS SUD,-32.5334055082121694,-64.1083139877236761,14
142581,MALENA,-33.4904506753775522,-64.4317442961674942,14
142588,SUCO,-33.4414356242941082,-64.8290466867185415,14
142595,VILLA EL CHACAY,-32.8944086351540079,-64.8658820184979419,14
142602,WASHINGTON,-33.8748130316446776,-64.6907512956001369,14
142609,ATAHONA,-30.8588942256557743,-63.6494965710202862,14
142616,CAÑADA DE MACHADO,-31.4291231437251,-63.5869750076906897,14
142623,CAPILLA DE LOS  REMEDIOS,-31.4269081145412876,-63.8203344245727564,14
142630,CHALACEA,-30.7632052336575157,-63.5769184254782189,14
142637,COLONIA LAS  CUATRO ESQUINAS,-31.2036266461888729,-63.224324428216633,14
142644,COMECHINGONES,-31.1716888632059472,-63.6066406773798008,14
142651,DIEGO DE ROJAS,-31.0276086920171501,-63.3412514576710564,14
142658,EL CRISPÍN,-31.0189797076703364,-63.6071854343478691,14
142665,ESQUINA,-31.0965547596048282,-63.7787706826490322,14
142672,KILÓMETRO 658,-31.3696370548368897,-63.5309336677359369,14
142679,LA POSTA,-30.5684483421589412,-63.515098380026366,14
142686,LA QUINTA,-31.0758714912753895,-63.150350455357227,14
142693,LAS GRAMILLAS,-31.1361592294240488,-63.2664711757620495,14
142700,LAS SALADAS,-30.7601509435352796,-63.2043193813075561,14
142707,MAQUINISTA GALLINI,-30.918197825688452,-63.5346280358156505,14
142714,PLAZA DE MERCEDES,-30.9772250492069716,-63.2611760527181488,14
142721,SAGRADA FAMILIA,-31.2879311408046235,-63.44538925188359,14
142728,TINOCO,-31.1045315982934589,-63.9052535784127258,14
142735,CERRO COLORADO,-30.1019030224683064,-63.9308316345370429,14
142742,CHAÑAR VIEJO,-29.992499413623456,-63.8514999217487684,14
142749,EUFRASIO LOZA,-29.9249635677759294,-63.5895362222016445,14
142756,GÜTEMBERG,-29.7037415488940368,-63.5504574858833351,14
142763,LA RINCONADA,-30.1602808580712924,-62.933483718141872,14
142770,LOS HOYOS,-29.7848497549882048,-63.6266756739873998,14
142777,PUESTO DE CASTRO,-30.1936676598579403,-63.4025697720489276,14
142784,RAYO CORTADO,-30.0719376972619372,-63.8284331360140413,14
142791,SANTA ELENA,-30.1147826429304359,-63.8587957361286769,14
142798,VILLA CANDELARIA NORTE,-29.8240610680011606,-63.342831512457316,14
142805,COLONIA VIDELA,-31.9169547649848866,-63.5039908818592167,14
142812,IMPIRA,-31.7968283637741429,-63.6502998161586078,14
142819,LOS CHAÑARITOS,-30.5735504195721752,-64.9612218742980616,14
142826,RINCÓN,-31.5941777031771629,-63.6262147970324392,14
142833,AMBUL,-31.5186767924262767,-65.0780298240082828,14
142840,ARROYO LOS  PATOS,-31.764219561874846,-65.0013233421398411,14
142847,LAS CALLES,-31.8359492924171548,-64.9288940967687722,14
142854,LAS RABONAS,-31.8709623753908815,-64.9489427851812593,14
142861,PANAHOLMA,-31.6204775594047867,-65.0686397589954311,14
142868,SAN LORENZO,-31.6586437934171521,-65.005101408765583,14
142875,SAN VICENTE,-31.8370903607737468,-65.5309219740348681,14
142882,SAUCE ARRIBA,-31.9111884774185626,-65.162547951832039,14
142889,CONLARA,-32.0781856148426527,-65.2552002582021515,14
142896,LA POBLACIÓN,-32.0779893265375051,-64.9970015769107476,14
142903,LAS TAPIAS,-31.9439409128127494,-65.1083345433485903,14
142910,LOS CERRILLOS,-31.9499649051029628,-65.4006487224588398,14
142917,LOS HORNILLOS,-31.8985332069954275,-64.987448941036206,14
142924,LUYABA,-32.1482687509276843,-65.0741168663063831,14
142931,COLONIA ANITA,-31.1210986173448134,-62.2342507930804487,14
142938,COLONIA ITURRASPE,-31.2076433233756987,-62.1111936572759546,14
142945,COLONIA LAS  PICHANAS,-31.3039964065617866,-62.9366942797857831,14
142952,COLONIA SAN PEDRO,-30.7826893147178708,-61.917354343784055,14
142959,COLONIA VALTELINA,-31.0524082685550553,-62.2339804279145241,14
142966,PLAZA LUXARDO,-31.3075262309916695,-62.1458650159188508,14
142973,TORO PUJIO,-31.1056274024480501,-62.9975126154701925,14
142980,VILLA SAN ESTEBAN,-31.6455668750732073,-62.9033357626935867,14
142987,ANISACATE,-31.7138413750518922,-64.4044575589391712,14
142994,BOUWER,-31.5497408867050453,-64.1791819532721775,14
143001,DIQUE CHICO,-31.7181315346149013,-64.3531607957158513,14
143008,FALDA DEL  CARMEN,-31.5761981297037551,-64.4824020120421579,14
143015,LA CUMBRECITA,-31.8983867615394239,-64.7864838705700663,14
143022,LA PAISANITA,-31.6984186695998957,-64.4786608714554603,14
143029,LA RANCHERITA,-31.7557848353359944,-64.4614102717181225,14
143036,LA SERRANITA,-31.7411366811168705,-64.4617824313022254,14
143043,LOS CEDROS,-31.531175787647765,-64.2883373164957419,14
143050,POTRERO DE GARAY,-31.8011586456790951,-64.5891432550296685,14
143057,RAFAEL GARCÍA,-31.6484813084360859,-64.261463361607511,14
143064,SAN CLEMENTE,-31.7222791862548981,-64.6344801875430761,14
143071,VALLE DE ANISACATE,-31.7350762329000951,-64.4192206419266427,14
143078,VILLA CIUDAD DE AMÉRICA,-31.7668626505577194,-64.5156567958550653,14
143085,VILLA DEL  PRADO,-31.6204677227676854,-64.3917917466749401,14
143092,VILLA LA BOLSA,-31.7320720279432074,-64.4294772612582562,14
143099,VILLA LOS  AROMOS,-31.7198998965796974,-64.4383564544400684,14
143106,VILLA PARQUE SANTA ANA,-31.5902804153486585,-64.347177063055085,14
143113,VILLA SAN ISIDRO,-31.8046885379657951,-64.4161559167215216,14
143120,CAMINIAGA,-30.0636109406398226,-64.0159666937209977,14
143127,CHUÑA HUASI,-29.8939402837580701,-64.126086402720091,14
143134,POZO NUEVO,-29.5752928863073734,-64.1248945764176739,14
143141,GENERAL FOTHERINGHAM,-32.3218044631245434,-63.8678208637172489,14
143148,LAS ISLETILLAS,-32.5081704675122296,-63.929420878959192,14
143155,PAMPAYASTA NORTE,-32.2379956630960578,-63.6569925653937929,14
143162,PUNTA DEL  AGUA,-32.5765144963957241,-63.8111899638921471,14
143169,CANDELARIA SUD,-30.8433176604863313,-63.8032592447913629,14
143176,CAPILLA DEL  SITÓN,-30.5721396926691789,-63.6531617735779989,14
143183,LA PAMPA,-30.9460219430715782,-64.2677377008499207,14
143190,LOS MISTOLES,-30.6263459398010447,-63.8831334918174178,14
143197,SIMBOLAR,-30.4759380124635157,-63.9848922540635598,14
143204,CHURQUI CAÑADA,-30.2150807804174164,-63.9386675332840255,14
143211,EL RODEO,-30.1647579225082865,-63.8576472993798774,14
143218,ROSARIO DEL  SALADILLO,-30.3653429543530287,-63.3904225262120704,14
143225,ALDEA SANTA MARÍA,-33.6993242969667932,-62.9142238528503128,14
143232,ANA ZUMARÁN,-32.3920332150245613,-63.0580417534197011,14
143239,COLONIA BREMEN,-33.4634143562878421,-62.7309923233010096,14
143246,VILLA LOS  PATOS,-32.7675652636144719,-62.7274983332988683,14
180007,BELLA VISTA,-28.4973936042377112,-58.9304362711764185,18
180014,BERÓN DE ASTRADA,-27.4779720010051207,-57.6113792118726522,18
180021,CORRIENTES,-27.4947779263690464,-58.7710352036827359,18
180028,RIACHUELO,-27.5959996969931858,-58.7470551543683683,18
180035,COLONIA SANTA ROSA,-28.1481432959309252,-57.9454760162157001,18
180042,CONCEPCIÓN,-28.5085585486294057,-58.0315933081549602,18
180049,TABAY,-28.2854948392920917,-58.2873627355179948,18
180056,TATACUÁ,-28.3785989810717929,-58.3050947683704734,18
180063,CURUZÚ CUATIÁ,-29.7994001929416612,-58.2762864775326435,18
180070,PERUGORRÍA,-29.2938992045436954,-58.5125713784408958,18
180077,EMPEDRADO,-27.8961218833918565,-58.6658439667826244,18
180084,ESQUINA,-29.933781043805844,-59.2266510868594835,18
180091,PUEBLO LIBERTADOR,-30.2566420474996782,-59.318898844995168,18
180098,ALVEAR,-28.7678860054041259,-56.5272399231192395,18
180105,ESTACIÓN TORRENT,-28.8169435562936727,-56.4216471648690714,18
180112,CAÁ CATÍ,-27.7192849474433238,-57.7316255330138759,18
180119,ITÁ IBATÉ,-27.5323131432038046,-57.3645741822866029,18
180126,LOMAS DE VALLEJOS,-27.7436198256323543,-58.0258178848755577,18
180133,PALMAR GRANDE,-27.9237583937916618,-57.9146651736822164,18
180137,CAROLINA,-29.1223982164133943,-59.1310526751934731,18
180140,GOYA,-29.3387451805434907,-59.1814817449752937,18
180143,SAN ISIDRO,-29.7043266159447867,-59.4177431634826831,18
180147,ITATÍ,-27.3440448999979964,-58.0493704609849743,18
180154,RAMADA PASO,-27.366935776162709,-58.2998076579153945,18
180161,COLONIA LIEBIG'S,-27.7796475708550581,-56.0569867005655382,18
180168,ITUZAINGÓ,-27.9679022751886635,-56.9170242560002819,18
180175,SAN ANTONIO,-27.5138604971911178,-56.853950257222742,18
180182,SAN CARLOS,-27.640363963829941,-56.0279924895072625,18
180186,VILLA OLIVARI,-27.6297448130988528,-56.9450354098950982,18
180189,CRUZ DE LOS  MILAGROS,-28.846005763433606,-59.0819662707521331,18
180196,GOBERNADOR MARTÍNEZ,-28.9078579201354984,-58.9110919001421038,18
180203,LAVALLE,-29.0283437433335365,-59.1722758591832019,18
180210,SANTA LUCÍA,-28.9873668184834372,-59.07994307264768,18
180217,YATAYTÍ CALLE,-29.0601700356195352,-58.7974473916706657,18
180224,MBURUCUYÁ,-28.0163816801488679,-58.1855624499080193,18
180231,FELIPE YOFRÉ,-29.0615191828754469,-58.4042407404600041,18
180238,MARIANO I. LOZA,-29.3427621035548647,-58.165547166119751,18
180245,MERCEDES,-29.0543617301547172,-57.7596459149958932,18
180252,COLONIA LIBERTAD,-29.9598593070436721,-57.8975786393603329,18
180259,JUAN PUJOL,-30.3777496827948603,-57.8889139828733192,18
180266,MOCORETÁ,-30.548801162898652,-57.9576529352177019,18
180273,MONTE CASEROS,-30.1816229638282252,-57.8245096673467103,18
180280,BONPLAND,-29.9449424362472207,-57.4609939770630831,18
180287,PARADA PUCHETA,-29.8319290490766811,-57.5860857472354866,18
180294,PASO DE LOS  LIBRES,-29.5103893625180227,-57.304616217926224,18
180301,TAPEBICUÁ,-29.3825487254222431,-56.9944982953596906,18
180308,SALADAS,-28.233342870022323,-58.5563693378129457,18
180315,SAN LORENZO,-28.162514197022567,-58.7720029879244379,18
180322,PASO DE LA PATRIA,-27.3449909014867885,-58.5797655579125589,18
180329,SAN COSME,-27.3711910798153291,-58.4474511948050122,18
180336,SANTA ANA,-27.4449964561917845,-58.61187312557891,18
180343,HERLITZKA,-27.617182137132982,-58.3350009974420374,18
180350,SAN LUIS DEL  PALMAR,-27.6003413411475833,-58.2610507449512554,18
180357,COLONIA CARLOS PELLEGRINI,-28.5228171265395751,-56.9796607997166049,18
180364,GUAVIRAVÍ,-29.3247220262723971,-56.8201061069555777,18
180371,LA CRUZ,-28.9102471314715466,-56.9211690740540206,18
180378,YAPEYÚ,-29.3892392506455344,-56.7895830853806913,18
180385,LORETO,-27.6650147813030109,-57.2388186771618166,18
180392,SAN MIGUEL,-28.0380947065894794,-57.5417436622558895,18
180399,9 DE JULIO,-28.8264574965270199,-58.8280908377803371,18
180406,PEDRO R. FERNÁNDEZ,-28.7749450961360331,-58.6540364666007434,18
180413,CHAVARRÍA,-28.8781231135238343,-58.5191731993605586,18
180417,COLONIA PANDO,-28.4636196386948441,-58.4395314723756414,18
180420,SAN ROQUE,-28.6004493002962548,-58.6710414606456041,18
180427,GARRUCHOS,-28.1045850569418327,-55.7418943441842103,18
180434,GOBERNADOR ING. VALENTÍN VIRASORO,-28.0253723148576057,-56.1463569036020047,18
180441,JOSE RAFAEL GOMEZ,-28.1940433726910236,-55.8400035689310954,18
180448,SANTO TOMÉ,-28.3306928185425058,-56.3086193944441504,18
180455,SAUCE,-29.9995445616682588,-58.7950373826115111,18
220007,CONCEPCIÓN DEL  BERMEJO,-26.4390809643573448,-60.9150799106616319,22
220014,LOS FRENTONES,-26.0373154569760246,-61.4747819966241664,22
220021,PAMPA DEL  INFIERNO,-26.3996405608475619,-61.1419915754834165,22
220028,TACO POZO,-25.330267010121613,-62.5887121017356094,22
220035,GENERAL VEDIA,-26.82253828020594,-58.7281314225757285,22
220042,ISLA DEL  CERRITO,-27.3042028642529928,-58.6805128113910754,22
220049,LA LEONESA,-26.9919281600834999,-58.847149724452251,22
220056,LAS PALMAS,-27.1249377281008783,-58.6766006044424415,22
220063,PUERTO BERMEJO,-26.8872364610761849,-58.5220496631663281,22
220070,PUERTO EVA PERÓN,-26.7118103068519872,-58.6372961529682328,22
220077,PRESIDENCIA ROQUE SÁENZ PEÑA,-26.7871365617901205,-60.4618654285581627,22
220084,CHARATA,-27.1179308914952308,-61.308891055923759,22
220091,GANCEDO,-27.4071980628510232,-61.633162526332633,22
220098,GENERAL CAPDEVILA,-27.4113623607879653,-61.467288816732264,22
220105,GENERAL PINEDO,-27.2779150070409244,-61.3663751828744708,22
220112,HERMOSO CAMPO,-27.6219112870160792,-61.3295201873307221,22
220113,CORZUELA,-26.849534277710422,-61.0719677178405149,22
220119,CHOROTIS,-27.8809440926129746,-61.5412578288585692,22
220126,SANTA SYLVINA,-27.8553437327266487,-61.1226107564696477,22
220140,LA ESCONDIDA,-27.0965245522956231,-59.4870735247902687,22
220147,LAPACHITO,-27.261298149918133,-59.4682527193081256,22
220154,LA VERDE,-27.0720366577963105,-59.3269273302485871,22
220161,MAKALLÉ,-27.1135329362586468,-59.2318224474401731,22
220168,EL SAUZALITO,-24.6544130660635226,-61.6482494847739062,22
220169,MISIÓN NUEVA POMPEYA,-24.9918396458622674,-61.5529901499502188,22
220175,FUERTE ESPERANZA,-25.0435535331706944,-61.9982165754166132,22
220182,JUAN JOSÉ CASTELLI,-25.9166159135437724,-60.6640706206378368,22
220189,MIRAFLORES,-25.4782409210672824,-61.0371403012266427,22
220203,VILLA RÍO BERMEJITO,-25.4572628455706997,-60.5125895465679946,22
220210,AVIA TERAI,-26.5818308825304648,-60.727136621298996,22
220217,CAMPO LARGO,-26.8556252118386709,-60.8027099375602376,22
220224,NAPENAY,-26.6788380991750529,-60.6303771302480214,22
220231,COLONIA POPULAR,-27.2943327258119233,-59.1285309815476481,22
220238,LAGUNA BLANCA,-27.2269203531939823,-59.1912791042957807,22
220252,CIERVO PETISO,-26.5687607509273604,-59.6216044052429339,22
220254,PUERTO TIROL,-27.3809344830458024,-59.2976390762251526,22
220259,"GRAL. SAN MARTENGENERAL SAN MARTÍN
GENERAL SAN MARTÍN
GENERAL SAN MARTÍN
GENERAL SAN MARTÍN",-26.5221875283041655,-59.2755844593318315,22
220266,LA EDUVIGIS,-26.7315607830315187,-58.9364657658411559,22
220273,LAGUNA LIMPIA,-26.4164829629715499,-59.6828098647245113,22
220280,PAMPA ALMIRÓN,-26.6429399384825096,-59.0436721297191696,22
220287,PAMPA DEL  INDIO,-26.0214403532384217,-59.9713281008366224,22
220294,PRESIDENCIA ROCA,-26.1772297025285283,-59.6843651883855486,22
220301,TRES ISLETAS,-26.3210291409792596,-60.4553482590009708,22
220308,CORONEL DU GRATY,-27.7497326053766216,-60.8951461983409672,22
220315,ENRIQUE URIEN,-27.7976804477473962,-60.4537324021048477,22
220322,VILLA ÁNGELA,-27.6777566756929119,-60.75578614982863,22
220329,LAS BREÑAS,-26.945538697654186,-61.265257667745864,22
220336,LA CLOTILDE,-27.1657262689172576,-60.6807380504204446,22
220343,LA TIGRA,-27.0834949282190145,-60.6148397314774741,22
220350,SAN BERNARDO,-27.3378730497717974,-60.7011479061372725,22
220357,PRESIDENCIA DE LA PLAZA,-27.046819973149745,-59.7751690486133569,22
220364,COLONIA BENITEZ,-27.3100638470581316,-58.8542427774582748,22
220371,MARGARITA BELÉN,-27.0890008584069371,-59.0194081969020488,22
220378,QUITILIPI,-26.6685132261826148,-60.1735021531371359,22
220385,BARRANQUERAS,-27.4821152611742896,-58.9196674519405406,22
220392,BASAIL,-27.8743070022136834,-59.1796870078996875,22
220399,FONTANA,-27.4240633359420762,-59.046895313597453,22
220406,PUERTO VILELAS,-27.7053948262969101,-58.9105019637920222,22
220413,RESISTENCIA,-27.5954104255766133,-59.1446432497471477,22
220420,SAMUHÚ,-27.6094738169632947,-60.3528866161124995,22
220427,VILLA BERTHET,-27.2650748138939747,-60.371729773556261,22
220434,CAPITÁN SOLARI,-26.8012560068176953,-59.4375309617601886,22
220441,COLONIAS ELISA,-26.9254012720409399,-59.4073885705905695,22
220448,COLONIAS UNIDAS,-26.698939293895517,-59.6206760397163151,22
220455,LAS GARCITAS,-26.6232885192826352,-59.778856701456391,22
220462,COTE LAI,-27.6903851661282552,-59.5673294759141427,22
220469,CHARADAI,-27.6443129888648755,-59.9622820759440884,22
220476,MACHAGAI,-26.8190200565020902,-60.0187650882889443,22
260007,PUERTO MADRYN,-42.7314766858899873,-65.0483377516849259,26
260014,CHOLILA,-42.4826328295290025,-71.4218533427071236,26
260021,EL HOYO,-42.1082232091106619,-71.4939336193376533,26
260028,EL MAITÉN,-42.1227715249120962,-71.1509289608383,26
260035,EPUYÉN,-42.2742146687024984,-71.347737938015527,26
260042,LAGO PUELO,-42.0304764901390797,-71.5667357457431308,26
260049,COMODORO RIVADAVIA,-45.8393410189071915,-67.5913153174428487,26
260056,RADA TILLY,-45.9332658147721844,-67.5779619867227552,26
260063,CAMARONES,-44.7983158105493544,-65.7501067941953181,26
260070,CORCOVADO,-43.5179298773809791,-71.4570936613240093,26
260077,ESQUEL,-42.9105175261148233,-71.3158427579452479,26
260084,TREVELÍN,-43.1975385431579753,-71.4504295400791136,26
260091,DOLAVON,-43.3329711153711941,-65.6836091125420438,26
260098,GAIMAN,-43.3084974956966988,-65.5118173147310756,26
260105,TECKA,-43.513164642429274,-70.8303282871390394,26
260112,RAWSON,-43.2585661872237992,-65.0886233413939834,26
260119,TRELEW,-43.2489444215853638,-65.3181167768115074,26
260126,ALTO RÍO SENGUER,-44.9493845325169303,-71.211731773366381,26
260133,RÍO MAYO,-45.7006012562260011,-70.2675090217991709,26
260140,SARMIENTO,-45.640520780223909,-69.0158940631978339,26
260147,GOBERNADOR COSTA,-44.2923070734091411,-70.7832052068573745,26
260154,JOSÉ DE SAN MARTÍN,-44.0515049815561639,-70.4638843298773168,26
260161,RÍO PICO,-44.18134203421954,-71.3431136361393357,26
265007,GUALJAINA,-42.7142084594082831,-70.5385061881654849,26
265014,28 DE JULIO,-43.3837023377193916,-65.8391207473089111,26
265021,PASO DE INDIOS,-43.8683992681332455,-69.0483419273241168,26
265028,PUERTO PIRÁMIDES,-42.5486838278014687,-64.2705125210326145,26
268014,CUSHAMEN,-42.1630600944266689,-70.6587711745075069,26
268021,CERRO CENTINELA,-43.462326230825191,-71.6090756854463422,26
268028,DIQUE FLORENTINO AMEGHINO,-43.6946453652295048,-66.4938176077616419,26
268035,GASTRE,-42.2871756127889853,-69.2167735510543025,26
268042,LAGUNITA SALADA,-42.7651335003203314,-69.1757884059082926,26
268049,ALDEA EPULEF,-43.3048186911105191,-69.6832150363228209,26
268056,CARRENLEUFÚ,-43.5775203888784119,-71.6561282123594481,26
268063,COLAN CONHUÉ,-43.2569672103579563,-70.0165928358279217,26
268070,PASO DEL  SAPO,-42.7463204230383198,-69.5836276706305483,26
268077,LAS PLUMAS,-43.7137219194695419,-67.292593065180796,26
268084,LOS ALTARES,-43.8915368579323015,-68.4396612396439536,26
268091,ALDEA BELEIRO,-45.5547604536795632,-71.5479426044265097,26
268098,DOCTOR RICARDO ROJAS,-45.5777033871546138,-71.0372325754431984,26
268105,FACUNDO,-45.295779058519571,-69.9689190757892163,26
268112,LAGO BLANCO,-45.9334874892863922,-71.2821431559324736,26
268119,BUEN PASTO,-45.0683165691959999,-69.4653884108616069,26
268126,GAN GAN,-42.5174537808720103,-68.2827116707788804,26
268133,TELSEN,-42.4225080787712159,-66.9530756416637161,26
268147,DR. ATILIO OSCAR VIGLIONE,-44.173102853301387,-71.6794040315732559,26
340007,LAGUNA YEMA,-24.284240551417664,-61.2514099326241634,34
340028,FORMOSA,-26.1958636875410562,-58.217344420589491,34
340049,GENERAL LUCIO VICTORIO MANSILLA,-26.6536726754651383,-58.6341764155735277,34
340056,HERRADURA,-26.4861755594849377,-58.299197483200274,34
340063,MISIÓN SAN FRANCISCO DE LAISHÍ,-26.2415655637697469,-58.6312572039415656,34
340070,VILLA ESCOLAR,-26.6312935930684098,-58.6689333256410066,34
340077,INGENIERO GUILLERMO N. JUÁREZ,-23.8985673230592788,-61.8551751958628202,34
340091,COMANDANTE FONTANA,-25.3369590717873905,-59.6848536280091437,34
340098,ESTANISLAO DEL CAMPO,-25.0637553874560695,-60.1089966071732391,34
340112,GENERAL BELGRANO,-24.9409528971948262,-59.0191697358227287,34
340119,GENERAL GÜEMES,-24.7572918582754617,-59.4860182346936881,34
340126,IBARRETA,-25.2135553298659332,-59.8647594063235502,34
340133,LAS LOMITAS,-24.7102155246944122,-60.5982877565269575,34
340140,POZO DEL TIGRE,-24.8852024120823003,-60.3165832566376068,34
340147,SAN MARTÍN DOS,-24.4373909208269282,-59.6447340181648329,34
340168,ESPINILLO,-25.0004660450385359,-58.5647875858738587,34
340169,LAGUNA BLANCA,-25.1115621017336288,-58.2696808211216535,34
340175,MISIÓN TAACAGLÉ,-24.9729365739169147,-58.8239429494864439,34
340189,CLORINDA,-25.3365444793712378,-57.7505249001674343,34
340203,LAGUNA NAIK NECK,-25.2202162074097203,-58.1204495394707976,34
340210,RIACHO HE-HE,-25.3624901614229863,-58.2718820640381949,34
340224,EL COLORADO,-26.2786318086378223,-59.35252403059377,34
340231,MAYOR VICENTE E. VILLAFAÑE,-26.2043809484767962,-59.0807489037342677,34
340238,PALO SANTO,-25.5654223384209089,-59.3429453708891188,34
340245,PIRANÉ,-25.7484130694870714,-59.1208484121304352,34
340252,VILLA DOS TRECE,-26.1846037925730073,-59.3642106776359029,34
340259,GENERAL MOSCONI,-23.1836667199884374,-62.3006586293613651,34
345007,LOS CHIRIGUANOS,-24.1062577355998258,-61.4734537946001396,34
345014,COLONIA PASTORIL,-25.6835261933356769,-58.2668101771917293,34
345021,GRAN GUARDIA,-25.8624689502624996,-58.8869102543171934,34
345028,SAN HILARIO,-26.0259038272530638,-58.647127541665192,34
345042,FORTÍN LUGONES,-24.2874111689075072,-59.8298344316783997,34
345049,SUBTENIENTE PERÍN,-25.5318689368592793,-60.0174675213043756,34
345056,BUENA VISTA,-25.0710502152579302,-58.3852760427267938,34
345063,TRES LAGUNAS,-25.2141176287372879,-58.5114565747576307,34
345070,SIETE PALMAS,-25.2016238617924451,-58.3290230085759305,34
349105,PORTÓN NEGRO,-24.9655172869136486,-58.7419037802063357,34
380014,ABRA PAMPA,-22.8431449411787639,-66.0322682108587742,38
380035,SAN SALVADOR DE JUJUY,-24.1943902774618245,-65.4189887578637013,38
380056,EL CARMEN,-24.4162328438079008,-65.2749306821561959,38
380063,MONTERRICO,-24.4592180378991841,-65.1355981658048364,38
380077,PERICO,-24.3919724186330136,-65.0852675017875697,38
380091,EL AGUILAR,-23.2109438569514595,-65.6379141890805329,38
380105,HUMAHUACA,-23.1800320816973624,-65.3082961701977212,38
380119,CAIMANCITO,-23.6468833920893964,-64.6976261158453951,38
380126,CALILEGUA,-23.7336839551609273,-64.7601461359254102,38
380133,FRAILE PINTADO,-23.9229619249258292,-64.9543223731295853,38
380140,LIBERTADOR GENERAL SAN MARTÍN,-23.8316438581041616,-64.851466711643198,38
380147,YUTO,-23.5653076358859579,-64.6176128701430912,38
380154,PALPALÁ,-24.1949225190466386,-65.1264498125423188,38
380196,LA ESPERANZA,-24.2041715000581057,-64.7720910953120921,38
380203,LA MENDIETA,-24.2955921038521261,-65.0074267062509392,38
380224,SAN PEDRO DE JUJUY,-24.3120783575939541,-64.7901598595736345,38
380238,EL TALAR,-23.5770497484148827,-64.2904725263414747,38
380245,PALMA SOLA,-24.0747906107903624,-64.3074515630431591,38
380252,SANTA CLARA,-24.2734316258699145,-64.6096326715893667,38
380329,TILCARA,-23.6181762353082405,-65.2742920000779208,38
380406,LA QUIACA,-22.1475151640072951,-65.6497996902659082,38
386007,ABDÓN CASTRO TOLAY,-23.3201640640822241,-65.9917423948271278,38
386014,ABRALAITE,-23.1358937646647433,-65.7922094301539602,38
386021,PUESTO DEL  MARQUÉS,-22.5922176518710778,-65.6032729734535707,38
386028,YALA,-24.0245351929013253,-65.4612010689141641,38
386035,AGUAS CALIENTES,-24.5653059933412266,-64.9371057987964235,38
386042,PAMPA BLANCA,-24.5380294825292644,-65.0401221007485475,38
386049,PUESTO VIEJO,-24.4724198554792203,-64.958933317620847,38
386056,HIPÓLITO YRIGOYEN,-22.8761978101490122,-65.3462154739535208,38
386063,TRES CRUCES,-22.9377695400232291,-65.5450743065681678,38
386070,MINA PIRQUITAS,-22.7192976639660351,-66.6315369299640707,38
386077,RINCONADA,-22.4660000653538852,-66.1133735661478141,38
386084,SAN ANTONIO,-24.3467258627678049,-65.4468529258409006,38
386091,ARRAYANAL,-24.1313201861623519,-64.7788900953339493,38
386098,EL FUERTE,-24.3217934967158413,-64.4580224346764226,38
386105,RODEÍTO,-24.308415962954399,-64.7978944714527074,38
386112,ROSARIO DE RÍO GRANDE,-24.3672726216848581,-64.9045281380552694,38
386119,EL PIQUETE,-24.0318634646700602,-64.5780392132909498,38
386126,VINALITO,-23.7307638894877364,-64.3534086128734373,38
386133,CIENEGUILLAS,-22.1254725215270618,-65.9419011195485041,38
386140,CUSI CUSI,-22.4474904125097154,-66.673920759070441,38
386147,SANTA CATALINA,-22.0322033691541073,-66.1405716072481056,38
386154,CATUA,-23.66010372615035,-66.9591888909713475,38
386161,CORANZULI,-23.194626094951218,-66.614526284725045,38
386168,SUSQUES,-23.7054223180767032,-66.5588749659573011,38
386175,HUACALERA,-23.3977683815659319,-65.3946655371627372,38
386182,MAIMARÁ,-23.6423715717053291,-65.4364492243532538,38
386189,PURMAMARCA,-23.7073529764014879,-65.7590928734087043,38
386196,TUMBAYA,-23.8140533222167079,-65.4938002318189234,38
386203,VOLCÁN,-23.899326838187342,-65.4107118105984284,38
386210,CASPALÁ,-23.344631709967814,-65.0831777531169706,38
386217,PAMPICHUELA,-23.5633995980457556,-65.045223227279692,38
386224,SAN FRANCISCO,-23.6236121126706173,-64.9242015066972442,38
386231,SANTA ANA,-23.362972737225153,-64.9607058736901166,38
386238,VALLE GRANDE,-23.4986285822547565,-64.930575276251588,38
386245,BARRIOS,-22.2821895352064701,-65.5258263700185921,38
386252,CANGREJILLOS,-22.443899959547565,-65.5405751330490745,38
386259,EL CÓNDOR,-22.414030404423972,-65.3795310298622923,38
386266,PUMAHUASI,-22.3191975563463068,-65.7808960012592649,38
386273,YAVI,-22.1949119799290955,-65.3412864273207674,38
420007,ABRAMO,-37.9218412713365609,-64.1906632402765212,42
420011,ALGARROBO DEL  ÁGUILA,-36.4002145195533799,-67.408792056852306,42
420014,ALPACHIRI,-37.3878939429661088,-63.8366890133505365,42
420021,ALTA ITALIA,-35.3498672141462151,-64.0994549558220967,42
420028,ANGUIL,-36.5543101532231347,-64.0452421264359515,42
420035,ARATA,-35.639651064082102,-64.3719606689049897,42
420042,ATALIVA ROCA,-36.9558969256195269,-64.3793681609510173,42
420049,BERNARDO LARROUDE,-35.0688510274547838,-63.4949611104079281,42
420056,BERNASCONI,-38.1726373832168022,-64.0988711483354621,42
420063,CALEUFÚ,-35.6439826197757412,-64.5916676567603787,42
420070,CARRO QUEMADO,-36.6770495426264276,-65.3294244941345426,42
420077,CATRILÓ,-36.4566752503383995,-63.4792036669961277,42
420084,CEBALLOS,-35.262717659407727,-63.8110073128559918,42
420091,COLONIA BARÓN,-36.2070971406290951,-63.8361884288235828,42
420098,CONHELO,-35.989578898804389,-64.6068637776844952,42
420105,CORONEL HILARIO LAGOS,-35.0850242945420376,-63.8577976411478545,42
420112,DOBLAS,-37.1752576653958755,-64.0061584536092454,42
420116,DORILA,-35.7922732986449716,-63.7458253289186274,42
420119,EDUARDO CASTEX,-35.9371265801400881,-64.3296829486187534,42
420126,EMBAJADOR MARTINI,-35.3612111194717968,-64.2940729256624621,42
420133,GENERAL ACHA,-37.6096833380063131,-65.0659942392503297,42
420140,GENERAL CAMPOS,-37.3995272293203556,-63.5266190870234553,42
420147,GENERAL PICO,-35.5797742856039676,-63.6162749709165141,42
420154,GENERAL SAN MARTÍN,-38.2823959989124276,-63.7483607116489353,42
420161,GUATRACHÉ,-37.6718770730308492,-63.6737487898962158,42
420168,INGENIERO LUIGGI,-35.3868979248350684,-64.6342119573137666,42
420175,INTENDENTE ALVEAR,-35.2731377859157504,-63.5508311755451416,42
420182,JACINTO ARAUZ,-38.2691742864471465,-63.4812273049457971,42
420189,LA ADELA,-38.7835189351641105,-64.1118204002918048,42
420196,LA HUMADA,-36.3956465607268527,-67.9743018865440689,42
420210,LA MARUJA,-35.6516430074803239,-65.0038539234569868,42
420217,LONQUIMAY,-36.4918397041486458,-63.6376677251470468,42
420224,LUAN TORO,-36.244121325494028,-65.0217182225343606,42
420231,MACACHÍN,-37.12295505308375,-63.6943937231620794,42
420238,MAURICIO MAYER,-36.2357896411950051,-64.0688110278832141,42
420245,METILEO,-35.818753313322766,-63.9455158938857338,42
420252,MIGUEL CANÉ,-36.1708849475111265,-63.5209715100293906,42
420259,MIGUEL RIGLOS,-36.8320346409974064,-63.7976877058672684,42
420266,MONTE NIEVAS,-35.8739584862966012,-64.1173404843674888,42
420273,PARERA,-35.1852121657451775,-64.4993137537235413,42
420280,PUELCHES,-38.0312653577146946,-66.0568431795001914,42
420287,PUELÉN,-37.1503128326127552,-67.6700354194202447,42
420294,QUEHUÉ,-37.1049269830237236,-64.7100455299848107,42
420301,QUEMÚ QUEMÚ,-35.9899232091811854,-63.5963423365354856,42
420308,RANCUL,-35.1568500131534094,-64.8706864412113475,42
420315,REALICÓ,-35.1055266288962002,-64.2414455593926164,42
420322,ROLÓN,-37.123144146263968,-63.4697507510433496,42
420329,SANTA ISABEL,-36.4241719901827352,-66.6047431635362557,42
420336,SANTA ROSA,-36.5322365145791252,-64.4089343089285649,42
420343,SANTA TERESA,-37.5577310761252434,-63.5302848624150727,42
420350,TELÉN,-36.5134528460899901,-65.7900333947797407,42
420357,TOAY,-36.6824756333842359,-64.7196040508548691,42
420364,TOMÁS MANUEL ANCHORENA,-36.8296816826030522,-63.4977798993705775,42
420371,TRENEL,-35.6413010481655306,-64.1226949154921044,42
420378,URIBURU,-36.5083737162916009,-63.8303238811821529,42
420385,VEINTICINCO DE MAYO,-37.7967978817517434,-67.3033281981441291,42
420392,VÉRTIZ,-35.4203277421275828,-63.9035759107821519,42
420399,VICTORICA,-36.0952859514656978,-65.8441622972005547,42
420406,VILLA MIRASOL,-36.0084630949925,-63.9307226012965728,42
420413,WINIFREDA,-36.261182010103191,-64.4552441731365917,42
422007,CASA DE PIEDRA,-38.2360587226758781,-66.9836778535491675,42
425007,ADOLFO VAN PRAET,-35.0687880041611066,-64.0161738244231202,42
425014,AGUSTONI,-35.7927871529689341,-63.4827268346080729,42
425028,COLONIA SANTA MARÍA,-37.4369062402096517,-64.1768424743253263,42
425042,CUCHILLO CÓ,-38.2880644808570807,-64.815455641066734,42
425049,CHACHARRAMENDI,-37.2319839948441569,-65.7044365848260128,42
425063,FALUCHO,-35.1878951146314449,-64.0782858104043243,42
425070,GOBERNADOR DUVAL,-38.5453661204737088,-65.8572271584388176,42
425077,LA REFORMA,-37.4347070443003318,-66.2286938603008082,42
425084,LIMAY MAHUIDA,-37.1076410505622434,-66.64479343823308,42
425091,LOVENTUÉ,-36.1713696479035036,-65.250893879372569,42
425098,MAISONNAVE,-35.0449274835384799,-64.4002912370171003,42
425105,PERÚ,-37.6579811945705458,-64.0516815451907462,42
425112,PICHI HUINCA,-35.6486769518977482,-64.7947455489824478,42
425119,QUETREQUÉN,-35.0450496068839144,-64.5365926709591662,42
425126,RELMO,-36.2436590954093703,-63.4979561556210683,42
425133,RUCANELO,-36.0180946638784789,-64.8376588340502167,42
425140,SARAH,-35.0689021449120659,-63.6874058774599163,42
425147,SPELUZZI,-35.5333472823629535,-63.8703933569322331,42
425154,UNANUE,-37.6124085825330425,-64.3643426957669931,42
460007,ARAUCO,-28.5330735277515579,-66.7191515034156026,46
460014,CAPITAL,-29.460489857935773,-66.3525089002799291,46
460021,CASTRO BARROS,-28.8599829479000825,-66.9185847556269096,46
460028,CORONEL FELIPE VARELA,-29.4497956052040415,-68.3284822964494225,46
460035,CHAMICAL,-30.1677065304375169,-65.9562869452051785,46
460042,CHILECITO,-29.3959374753196343,-67.4278867892017217,46
460049,FAMATINA,-28.6973037998884308,-67.5592920371099268,46
460056,GENERAL ÁNGEL VICENTE PEÑALOZA,-30.3128975389813924,-66.6630521188972409,46
460063,GENERAL BELGRANO,-30.577691650215165,-65.9316310510946693,46
460070,GENERAL JUAN FACUNDO QUIROGA,-30.8009590345359925,-66.8681045144560073,46
460077,GENERAL LAMADRID,-28.7904353562757045,-68.6977547342455495,46
460084,GENERAL OCAMPO,-31.0066417358943127,-66.0590548631785168,46
460091,GENERAL SAN MARTÍN,-31.6413069709298824,-66.1459756727951458,46
460098,VINCHINA,-28.3164203776533299,-68.5253984631141577,46
460105,INDEPENDENCIA,-30.1144612462884211,-67.3355202231145284,46
460112,ROSARIO VERA PEÑALOZA,-31.4205977732086339,-66.6788621651991207,46
460119,SAN BLAS DE LOS  SAUCES,-28.5433309062698619,-67.1581530652484844,46
460126,SANAGASTA,-29.1585269700687668,-67.0658836337792508,46
500007,CAPITAL,-32.880654104798495,-68.8921657602391662,50
500014,GENERAL ALVEAR,-35.2178364156831663,-67.080447328942725,50
500021,GODOY CRUZ,-32.9297600556688508,-68.8890844545154977,50
500028,GUAYMALLÉN,-32.8910429154042347,-68.7323728513947856,50
500035,JUNÍN,-33.1462075241433496,-68.4803420038398656,50
500042,LA PAZ,-33.7114684971788918,-67.2475409227543821,50
500049,LAS HERAS,-32.5247668775426462,-69.2671757239401131,50
500056,LAVALLE,-32.5825853677510437,-67.889072704967063,50
500063,LUJÁN DE CUYO,-33.0382520812749263,-69.4437142136648333,50
500070,MAIPÚ,-32.9775099458465704,-68.652173990416415,50
500077,MALARGÜE,-36.1572730441954135,-69.3135099463235349,50
500084,RIVADAVIA,-33.4197071097540004,-68.6121759957282933,50
500091,SAN CARLOS,-34.0753663961096009,-69.0977010128895728,50
500098,SAN MARTÍN,-32.9088785853185115,-68.2844229443887087,50
500105,SAN RAFAEL,-34.9445449683129681,-68.382678312489503,50
500112,SANTA ROSA,-33.6177946030972805,-67.9636620466004615,50
500119,TUNUYÁN,-33.6223342938161807,-69.5078054633830362,50
500126,TUPUNGATO,-33.2915070191449871,-69.3019667535029527,50
540007,APÓSTOLES,-27.9025022905258204,-55.7217304493641237,54
540014,AZARA,-28.0544358853963907,-55.6663453779072839,54
540021,SAN JOSÉ,-27.7754603717937414,-55.6691612915895249,54
540028,TRES CAPONES,-27.9918146633048792,-55.614137708092855,54
540035,ARISTÓBULO DEL VALLE,-27.1247440389736028,-54.8269103165253497,54
540042,CAMPO GRANDE,-27.2318963611694045,-54.9614135308370422,54
540049,DOS DE MAYO,-27.0916027750349393,-54.6114381158114881,54
540056,BONPLAND,-27.4778638061425227,-55.4718692017467063,54
540063,CANDELARIA,-27.4689188332011867,-55.7145175073734364,54
540070,CERRO CORÁ,-27.5269569187276488,-55.6020787955219546,54
540077,LORETO,-27.3567760317074899,-55.512707335310381,54
540084,MÁRTIRES,-27.4192742863884895,-55.3818743554228661,54
540091,PROFUNDIDAD,-27.5596067764968247,-55.7184719443713021,54
540098,SANTA ANA,-27.4093121831825428,-55.5975181316591289,54
540105,FACHINAL,-27.6682436215363197,-55.7524063308179691,54
540112,GARUPÁ,-27.5440492834756405,-55.8649965962928974,54
540119,POSADAS,-27.4338171392784531,-55.9588395478271892,54
540126,CONCEPCIÓN DE LA SIERRA,-27.9975106090559187,-55.516164296025778,54
540133,SANTA MARÍA,-27.8747754650078576,-55.4252777120984916,54
540140,COLONIA DELICIA,-26.2054681649102186,-54.396871890178133,54
540147,COLONIA VICTORIA,-26.3079117238365505,-54.4956399291883002,54
540154,ELDORADO,-26.4223788581656649,-54.6153014553097194,54
540161,9 DE JULIO,-26.434887611439418,-54.4912136871941399,54
540168,SANTIAGO DE LINIERS,-26.4059052828745777,-54.3574983163211485,54
540175,BERNARDO DE IRIGOYEN,-26.1817820643676065,-53.946448027282571,54
540182,COMANDANTE A. GUACURARY,-25.7226094659073823,-54.0113111967569708,54
540189,SAN ANTONIO,-25.9963679675544626,-53.9385338267044929,54
540196,EL SOBERBIO,-27.0791879419082058,-54.1568795747352638,54
540203,SAN VICENTE,-26.9628192811879472,-54.4040788497149208,54
540210,PUERTO ESPERANZA,-26.0812488812615264,-54.4721723500383206,54
540217,IGUAZÚ,-25.6745733703586616,-54.3757510644289326,54
540224,LIBERTAD,-25.8492622245533958,-54.4206259685073235,54
540231,COLONIA WANDA,-25.9807484033979428,-54.3100077563901067,54
540238,ALMAFUERTE,-27.5255595161850977,-55.387471713783043,54
540245,ARROYO DEL MEDIO,-27.7292589296399044,-55.3978728810583974,54
540252,CAA YARÍ,-27.5172025944507119,-55.3054526023441682,54
540259,CERRO AZUL,-27.6492686317995222,-55.5134640126558665,54
540266,DOS ARROYOS,-27.7059575800021491,-55.2673317321972632,54
540273,GOBERNADOR LÓPEZ,-27.6390377593074135,-55.2119796755876422,54
540280,LEANDRO N. ALEM,-27.6166283094589247,-55.330013462700137,54
540294,CAPIOVÍ,-26.9170167064855086,-55.0589446206980284,54
540301,EL ALCÁZAR,-26.8436076435471378,-54.7771362135852371,54
540308,GARUHAPÉ,-26.8872609443925654,-54.9072138973559092,54
540315,LEONI,-26.9961973424162842,-55.1380752661385714,54
540322,PUERTO RICO,-26.8443110448475899,-55.0464275552228131,54
540329,RUIZ DE MONTOYA,-27.0137225461158614,-55.0415994359260381,54
540336,CARAGUATAY,-26.7880792818678692,-54.6714739429374532,54
540350,PUERTO PIRAY,-26.5386325781088708,-54.4261810360779492,54
540357,CAMPO RAMÓN,-27.4792481782820133,-54.9662782162748584,54
540364,CAMPO VIERA,-27.2823846186063825,-55.0718611745211106,54
540371,COLONIA ALBERDI,-27.3573476620483618,-55.201228705264171,54
540378,GRAL. ALVEAR,-27.4190588795895849,-55.18005391556094,54
540385,GUARANÍ,-27.5607188356084478,-55.1766194604071245,54
540392,LOS HELECHOS,-27.5706570338854426,-55.0593874576336972,54
540399,OBERÁ,-27.4524533921177465,-55.1176353030915394,54
540406,PANAMBÍ,-27.6772283781459372,-54.969439087747908,54
540413,SAN MARTÍN,-27.4727246661256359,-55.2627854314175195,54
540420,COLONIA POLANA,-27.0078976283378154,-55.3166124203082816,54
540427,CORPUS,-27.1463492893014227,-55.5070851678502777,54
540434,GENERAL J. J. URQUIZA,-27.0500317841879365,-55.3936187774799293,54
540441,GOBERNADOR ROCA,-27.2531814207831928,-55.3680377708939062,54
540448,HIPÓLITO IRIGOYEN,-27.1001832606050606,-55.3071982607111963,54
540455,JARDÍN AMÉRICA,-27.0873119097213504,-55.1946087942068999,54
540462,SAN IGNACIO,-27.2933473519192802,-55.4592623960159088,54
540469,SANTO PIPO,-27.2063287575880679,-55.2795707965949745,54
540476,AMEGHINO,-27.6952894204322888,-55.0615940730353302,54
540483,ITACARUARÉ,-27.8358055260116117,-55.2793085457893341,54
540490,MOJÓN GRANDE,-27.7257081241474204,-55.1202260917369387,54
540497,SAN JAVIER,-27.8093657596003325,-55.1540444936225427,54
540504,SAN PEDRO,-26.7112090360394809,-53.9412291264285244,54
540511,ALBA POSSE,-27.4811807319862389,-54.7985455372283994,54
540518,COLONIA AURORA,-27.3576371079951635,-54.4485723077611254,54
540525,25 DE MAYO,-27.3331053109932434,-54.6814951271054497,54
549999,VILLA LAGO MELIQUINA,-40.404262519833658,-71.2085623180023077,54
540287,OLEGARIO V. ANDRADE,-27.5656210470432157,-55.4966789911990688,54
540343,MONTECARLO,-26.6397797294580059,-54.5625759117352729,54
580007,ALUMINÉ,-39.234273402944325,-70.9120954468479283,58
580014,AÑELO,-38.3598393457538833,-68.8052191976130274,58
580021,SAN PATRICIO DEL  CHAÑAR,-38.5950644241867167,-68.348288492322709,58
580028,LAS COLORADAS,-39.6076912118786737,-70.5825186548069325,58
580035,PIEDRA DEL  ÁGUILA,-40.0556599804127629,-70.0814261575928157,58
580042,CENTENARIO,-38.7973834665027297,-68.1756656510973471,58
580049,CUTRAL CÓ,-38.9398936598765957,-69.2541458274132964,58
580056,NEUQUÉN,-38.9446959754993003,-68.1001766838423208,58
580063,PLAZA HUINCUL,-38.9406582608027279,-69.1598555722786443,58
580070,PLOTTIER,-38.9486355466446099,-68.2772667713434203,58
580077,SENILLOSA,-38.9122912366410958,-68.6767926458881135,58
580084,VILLA EL CHOCÓN,-39.2563688848299535,-68.84087188529152,58
580091,VISTA ALEGRE,-38.7688687995695673,-68.2001640971801493,58
580098,CHOS MALAL,-37.35513994230827,-70.2702475118703376,58
580105,TRICAO MALAL,-37.044430466401252,-70.3654033463116804,58
580112,JUNÍN DE LOS  ANDES,-39.9210969926668611,-71.0997656206867106,58
580119,SAN MARTÍN DE LOS  ANDES,-40.1347992136533591,-71.3015414173336097,58
580126,LONCOPUÉ,-38.1307636697429544,-70.6070114096581705,58
580133,VILLA LA ANGOSTURA,-40.7808534834014509,-71.6236786668395098,58
580140,ANDACOLLO,-37.2626267236257434,-70.6129787116710048,58
580147,HUINGANCO,-37.0638452103236418,-70.5999829263708563,58
580154,LAS OVEJAS,-36.8419567404505841,-70.9180527399826417,58
580161,LOS MICHES,-37.1472111349999494,-70.9641103407799108,58
580168,CAVIAHUE-COPAHUE,-37.8563623456878844,-71.0450198744787116,58
580175,EL CHOLAR,-37.4558329459089236,-70.6873431812616815,58
580182,EL HUECÚ,-37.649778249243937,-70.583348481791532,58
580189,TAQUIMILÁN,-37.591000103507767,-70.3458343954121119,58
580196,BARRANCAS,-36.8598372922576871,-69.9370599267060555,58
580203,BUTA RANQUIL,-37.2421306229287907,-69.8210409111221111,58
580210,RINCÓN DE LOS  SAUCES,-37.4279286578831645,-68.9048819508570318,58
580217,PICÚN LEUFÚ,-39.5272959346431563,-69.3041340199496858,58
580224,BAJADA DEL  AGRIO,-38.4056776856649478,-70.0310159232412133,58
580231,LAS LAJAS,-38.54472444067639,-70.3064166225065463,58
580238,MARIANO MORENO,-38.768792734204645,-70.0160273047474817,58
580245,ZAPALA,-38.9328385901676342,-70.1432085906335203,58
580252,VILLA PEHUENIA,-38.9071357687471249,-71.1785013312735799,58
585014,AGUADA SAN ROQUE,-37.973867991489648,-68.9371469809988326,58
585021,LOS CHIHUIDOS,-38.0504241884088401,-69.5338451224223348,58
585028,PILO LIL,-39.626025416196633,-70.8980298318759594,58
585035,SANTO TOMÁS,-39.8409265275249354,-70.0938182756884487,58
585042,SAUZAL BONITO,-38.5628864544463852,-69.0137527772464949,58
585049,COYUCO-COCHICO,-36.5418089920472084,-70.2492773646574733,58
585056,VILLA CURI LEUVÚ,-37.17094366458916,-70.4296686921956336,58
585063,CHORRIACA,-37.9190485298908513,-70.0460883788547619,58
585070,VILLA TRAFUL,-40.6716922374748648,-71.3996881541688708,58
585077,GUAÑACOS,-37.2860435824025416,-70.9333362922708943,58
585084,MANZANO AMARGO,-36.6887545268273954,-70.8071507874931569,58
585091,VARVARCO - INVERNADA VIEJA,-36.7933760258871985,-70.5962736544535687,58
585098,VILLA DEL  NAHUEVE,-37.0165803312122605,-70.9189370546609155,58
585105,OCTAVIO PICO,-37.6310256208454703,-68.3594661614186236,58
585112,EL SAUCE,-39.4816153694995862,-69.5258646816177759,58
585119,PASO AGUERRE,-39.3365722197045429,-69.7956444882817522,58
585126,QUILI MALAL,-38.4119191438239156,-69.750282757492883,58
585133,COVUNCO ABAJO,-38.6166812663412031,-69.6916428096758267,58
585140,LOS CATUTOS,-38.82899963732293,-70.1262364173041988,58
585147,RAMÓN CASTRO,-38.969390640862386,-69.7563648428793357,58
585154,VILLA DEL  PUENTE PICÚN LEUFÚ,-39.2076088818139823,-70.0822342331812393,58
620007,GUARDIA MITRE,-40.4374907428096435,-63.7048698215980025,62
620014,VIEDMA,-40.8478125393559708,-63.0166864583886337,62
620021,CHIMPAY,-39.1593568616364678,-66.1547548307705,62
620028,CHOELE CHOEL,-39.2954108986731114,-65.6496694401312624,62
620035,CORONEL BELISLE,-39.2017811762867225,-65.9758157766284654,62
620042,DARWIN,-39.2170285328299855,-65.7651292587730012,62
620049,LAMARQUE,-39.3988847133037581,-65.6791011612072282,62
620056,LUIS BELTRAN,-39.3096814687973932,-65.7874879345285706,62
620063,POMONA,-39.5167601655441416,-65.6588412374935047,62
620070,EL BOLSON,-41.8628906112854082,-71.529200954754657,62
620077,SAN CARLOS DE BARILOCHE,-41.1225978897056166,-71.3797361980634832,62
620084,GRAL. CONESA,-40.1208064756327829,-64.3692830696643199,62
620091,ALLEN,-39.4548258741817151,-68.2367757347548292,62
620098,CAMPO GRANDE,-38.6833232356603816,-68.181307478927863,62
620105,CATRIEL,-37.8531255573184566,-67.8278538596389495,62
620112,CERVANTES,-39.0497340068548269,-67.4340737678692079,62
620119,CHICHINALES,-39.1295006214717631,-66.9499547671550772,62
620126,CINCO SALTOS,-38.8117033664372713,-68.0660751980811654,62
620133,CIPOLLETTI,-39.4535226486066151,-68.6918674865879666,62
620140,CONTRALMIRANTE CORDERO,-38.7203467273618003,-68.1230182434354106,62
620147,GRAL. ENRIQUE GODOY,-38.8781596546557395,-67.1569924498787572,62
620154,GRAL. FDEZ. ORO,-38.9627414832882266,-67.922873528427715,62
620161,GRAL. ROCA,-39.0084775603203084,-67.6126070896437028,62
620168,INGENIERO HUERGO,-38.8373190542738769,-67.2329966686373695,62
620175,MAINQUE,-38.8398592335240807,-67.3191257956810887,62
620182,VILLA REGINA,-38.9398313952734725,-67.0685798585155624,62
620189,MINISTRO RAMOS MEXIA,-40.4883111469266197,-67.2563384673479874,62
620196,SIERRA COLORADA,-40.5924390019701846,-67.7020241137006735,62
620203,ÑORQUINCO,-41.8467273376903535,-70.8882638485983847,62
620210,RÌO COLORADO,-39.0037456216053187,-64.083401561232364,62
620217,COMALLO,-41.0251092261411046,-70.2710463795789053,62
620224,PILCANIYEU,-41.0859116021639252,-70.7859482097355226,62
620231,SAN ANTONIO OESTE,-40.5429230180034352,-65.2832347104510404,62
620238,SIERRA GRANDE,-41.6199292450995912,-65.3927571583057272,62
620245,VALCHETA,-40.6689477397888552,-66.164510635956475,62
620252,ING. JACOBACCI,-41.3324324077447045,-69.5580631515132239,62
620259,LOS MENUCOS,-40.8262504342814267,-68.0873726971183686,62
620266,MAQUINCHAO,-41.2407347869401022,-68.6864825063140074,62
620273,DINA HUAPI,-41.0792931337116727,-71.1511346698346046,62
625014,SAN JAVIER,-40.8543119978496208,-63.6849182819527471,62
625028,EL MANSO,-41.5877092934517094,-71.5461873896746852,62
625035,PASO FLORES,-40.7194201979153974,-70.6386570920084722,62
625042,VILLA LLANQUIN,-40.8764816536377467,-71.0123491718888715,62
625056,EL CUY,-39.904213068415828,-68.1435897851708461,62
625070,MENCUEN,-40.2923882541387641,-69.5866017327968933,62
625077,AGUADA GUZMAN,-40.0648502664188513,-68.9428325675974634,62
625098,NAUPA HUEN,-39.9330478073117305,-69.5423537818291777,62
625105,PEÑAS BLANCAS,-37.6537990108300988,-68.0360307856015396,62
625112,VALLE AZUL,-39.2976976982114792,-66.7691271592177173,62
625119,RINCON DE TRENETA,-41.0080872277293125,-67.0041219987909784,62
625126,YAMINUÉ,-41.0317785123532914,-67.2289997540711397,62
625140,PILQUINIYEU DEL  LIMAY,-40.5306782823035547,-70.0352483234368037,62
625147,ARROYO LOS  BERROS,-41.4992329032042164,-66.3180512632964962,62
625154,ARROYO VENTANA,-41.7917583774206207,-66.0336562102573623,62
625161,CONA NIYEU,-41.7591468812230744,-66.9600916196988862,62
625168,AGUADA CECILIO,-40.8663529171297029,-65.8978743716421178,62
625175,CHIPAUQUIL,-40.9951090361059016,-66.6618073695210711,62
625182,NAHUEL NIYEU,-40.3520195252549527,-66.5234520435457739,62
625189,SIERRA PAILEMAN,-41.2545511067632447,-66.4262124862793399,62
625196,AGUADA DE GUERRA,-40.9552361898101651,-68.4614433401377198,62
625203,COLAN CONHUÉ,-40.6523873505042062,-69.0264752767974983,62
625210,COMICO,-41.1358166511192138,-67.4285917982655434,62
625217,CLEMENTE ONELLI,-41.2742447606359377,-70.0751620437645215,62
625224,EL CAIN,-41.7663746514907217,-67.9105731336341591,62
625231,LAGUNA BLANCA,-40.760130240264246,-69.7256094720868447,62
625238,MAMUEL CHOIQUE,-41.7859281548501471,-70.1233351467105734,62
625245,OJOS DE AGUA,-41.7231304422892606,-69.7583611048089551,62
625252,PILQUINIYEU,-41.8669835874347527,-68.4383244447555228,62
625259,PRAHUANIYEU,-41.4322205075104719,-67.7707234083529073,62
625266,RIO CHICO,-41.7550023825728047,-70.4166173577107628,62
660007,APOLINARIO SARAVIA,-24.5066508305036415,-64.1465067882369766,66
660014,EL QUEBRACHAL,-25.3951182356290843,-63.5716971394089185,66
660021,GENERAL PIZARRO,-24.2794745686322493,-63.8534468819851568,66
660028,JOAQUÍN V. GONZÁLEZ,-24.7923476420040068,-63.6538145950213519,66
660035,LAS LAJITAS,-24.9101681976983613,-64.5809409708696762,66
660042,CACHI,-25.0590252489353027,-66.2878110751075411,66
660049,PAYOGASTA,-24.9895645901527885,-66.004560419224731,66
660056,CAFAYATE,-26.1255058750695568,-65.8800845785599876,66
660063,SALTA,-24.9216984420797942,-65.2407273845383884,66
660070,SAN LORENZO,-24.7507448986605105,-65.5329792794034489,66
660077,CERRILLOS,-24.9165899415055812,-65.4227277758729429,66
660084,LA MERCED,-25.0395625548901073,-65.3904542120283878,66
660091,CHICOANA,-25.1596228132599578,-65.6740171346466468,66
660098,EL CARRIL,-25.1273759330098123,-65.404641249823797,66
660105,CAMPO SANTO,-24.6921051071381612,-65.1385711455028513,66
660112,EL BORDO,-24.5863532648531979,-65.1601375683570723,66
660119,GENERAL GÜEMES,-24.8000501678008689,-64.9080381225922594,66
660126,AGUARAY,-22.1863764264673655,-63.5496991956857258,66
660133,EMBARCACIÓN,-23.2139456004595566,-63.686747485489299,66
660140,GENERAL BALLIVIÁN,-22.8977332748781279,-63.6228257844101677,66
660147,GENERAL MOSCONI,-22.6055769659414914,-63.978239637058671,66
660154,PROFESOR SALVADOR MAZZA,-22.0806947381939551,-63.67449160727368,66
660161,TARTAGAL,-22.5227285321063526,-63.4562279353983811,66
660168,GUACHIPAS,-25.7029452739388198,-65.4445328508853947,66
660175,IRUYA,-22.7966946998464799,-65.0073390630697361,66
660182,ISLA DE CAÑAS,-22.8751953756976825,-64.6309520432881897,66
660189,LA CALDERA,-24.5621288281222476,-65.361858778693545,66
660196,VAQUEROS,-24.5627955475210413,-65.5476759943033613,66
660203,EL JARDÍN,-26.035714584349325,-65.4415593896556231,66
660210,EL TALA,-26.0211681588359269,-65.2730423705619529,66
660217,LA CANDELARIA,-26.1388785962188059,-65.0289418135702562,66
660224,LA POMA,-24.1468742630427791,-66.2073026200224177,66
660231,CORONEL MOLDES,-25.2941908506984632,-65.414425820110651,66
660238,LA VIÑA,-25.5361582471497996,-65.6768022184738527,66
660245,SAN ANTONIO DE LOS  COBRES,-24.573164770532248,-66.8172575823382147,66
660252,TOLAR GRANDE,-24.6951301961002549,-67.7458583264751439,66
660259,EL GALPÓN,-25.4373334069771388,-64.3349384487265468,66
660266,METÁN,-25.5135434924207836,-64.9767191434930282,66
660273,MOLINOS,-25.6051411736222363,-66.4900375368787451,66
660280,RÍO PIEDRAS,-25.2657044540023321,-65.0359297190078394,66
660287,SECLANTÁS,-25.2908465900776598,-66.2193251725653198,66
660294,COLONIA SANTA ROSA,-23.3864185280625598,-64.3935047544791246,66
660301,HIPÓLITO YRIGOYEN,-23.260511768567607,-64.2957534665367092,66
660308,PICHANAL,-23.7285438110279507,-63.8504366193731485,66
660315,SAN RAMÓN DE LA NUEVA ORÁN,-23.0849220134687982,-64.6094728862923517,66
660322,URUNDEL,-23.4575886007375836,-64.5835385816046994,66
660329,RIVADAVIA BANDA NORTE,-23.3621158597431062,-62.7552635995286252,66
660336,RIVADAVIA BANDA SUR,-24.3036351895074176,-62.942594901353246,66
660343,SANTA VICTORIA ESTE,-22.41761118111679,-62.8122067292646733,66
660350,EL POTRERO,-25.9037792359637535,-64.570461229858708,66
660357,ROSARIO DE LA FRONTERA,-25.8170544470769521,-64.9983575611145028,66
660364,CAMPO QUIJANO,-24.5034690170850098,-65.869399316352073,66
660371,ROSARIO DE LERMA,-24.9896500552557761,-65.6890576785536098,66
660378,ANGASTACO,-25.929833325586408,-66.3372867377434545,66
660385,ANIMANÁ,-25.9582267266097233,-65.9762475210555834,66
660392,SAN CARLOS,-25.6101715768952864,-65.9299075522856697,66
660399,LOS TOLDOS,-22.4689957526383921,-64.6575099735318446,66
660406,NAZARENO,-22.4901350156832791,-65.045789354706784,66
660413,SANTA VICTORIA OESTE,-22.2585509228288636,-65.0145224579477485,66
700007,ALBARDÓN,-31.209634481055506,-68.4519807662305908,70
700014,ANGACO,-31.1922192642061269,-68.131962579812722,70
700021,CALINGASTA,-31.4533652386092797,-69.8338001250745606,70
700028,SAN JUAN,-31.5330748483572307,-68.5342856277405872,70
700035,CAUCETE,-31.5063817025853012,-67.5458594420524747,70
700042,CHIMBAS,-31.4874196948621261,-68.5239289662612805,70
700049,IGLESIA,-29.6066873518889331,-69.4379498926956273,70
700056,JÁCHAL,-30.3550759493247142,-68.4412683481451722,70
700063,9 DE JULIO,-31.6458046846082226,-68.3890526964703156,70
700070,POCITO,-31.7459555808161191,-68.5842081096792668,70
700077,RAWSON,-31.6865858135557801,-68.4675631318926179,70
700084,RIVADAVIA,-31.5542325394478524,-68.6416232535812441,70
700091,SAN MARTÍN,-31.5285412012606407,-68.2072931248825114,70
700098,SANTA LUCÍA,-31.5327173670967227,-68.4634116809573783,70
700105,SARMIENTO,-32.0735423225080183,-68.6911356211091118,70
700112,ULLUM,-31.0904647062097368,-68.8815821606004874,70
700119,VALLE FÉRTIL,-30.7122962694162496,-67.5323035648389833,70
700126,25 DE MAYO,-31.9896198488068961,-67.8274038980405578,70
700133,ZONDA,-31.6381980593894667,-68.9555709233008685,70
740007,CANDELARIA,-32.0696433724101624,-65.833509206825056,74
740014,LUJAN,-32.3650001811130039,-65.9357732042100793,74
740021,QUINES,-32.2297816443169154,-65.8132243246609647,74
740028,SAN FRANCISCO,-32.5944806749797849,-66.1262207074520774,74
740035,"V, GRAL, ROCA",-32.6659194099238306,-66.4507834261469128,74
740038,ESTANCIA GRANDE,-33.1581085522714858,-66.1453962264860138,74
740042,LA TOMA,-33.0466532270839508,-65.6356268275324055,74
740049,CONCARAN,-32.564830869466256,-65.2385006221063577,74
740056,NASCHEL,-32.8995705014390367,-65.3862894779769306,74
740063,TILISARAO,-32.736959082211591,-65.2768445006966402,74
740070,JUSTO DARACT,-33.8586458145149791,-65.1869760029056522,74
740073,RANQUELES,-34.5620777515937334,-65.9653785506159238,74
740077,VILLA MERCEDES,-33.6676936019460129,-65.4739226474118965,74
740084,BUENA ESPERANZA,-34.7590033684232509,-65.25377043135056,74
740091,UNION,-35.1539097288901488,-65.945486816470563,74
740098,STA ROSA DEL  CONLARA,-32.3511840103270032,-65.2139507059249723,74
740105,MERLO,-32.352940033036738,-65.0070214618305471,74
740108,DESAGUADERO,-33.2931731671588409,-67.0844111188142875,74
740119,JUANA KOSLAY,-33.295107983567398,-66.2274958520561512,74
740133,SAN LUIS,-33.3035158239581506,-66.3434777452637832,74
740140,SAN MARTIN,-32.410129628562764,-65.6758808215230516,74
746007,LEANDRO N. ALEM,-32.4861654411151122,-66.0526110100642825,74
746014,LA CALERA,-32.8772165561097154,-66.8428577544769098,74
746021,NOGOLI,-32.9144404088905063,-66.3260298327171114,74
746028,"V, DE LA QUEBRADA",-33.0210961731301396,-66.2916667961258668,74
746035,CAROLINA,-32.8230037708213445,-66.1002883078040782,74
746042,EL TRAPICHE,-33.0307488782957464,-66.061091786954961,74
746049,FRAGA,-33.467588756623158,-65.8176668186051472,74
746063,SALADILLO,-33.2022523817984165,-65.8559267176370895,74
746070,CORTADERAS,-32.5179302837986981,-64.9931454311840326,74
746077,PAPAGAYOS,-32.6889705583597276,-64.9958582537886969,74
746084,RENCA,-32.7777931018667203,-65.3742752787486978,74
746091,SAN PABLO,-32.6522518781734732,-65.3092306502765609,74
746098,VILLA DEL  CARMEN,-32.9177881472781522,-65.0466107323723577,74
746105,VILLA LARCA,-32.605075148291867,-64.9872112931982286,74
746112,SAN JOSE DEL  MORRO,-33.2125308103617627,-65.4909903747158069,74
746126,JUAN LLERENA,-33.2835609428488226,-65.6483449572640438,74
746133,LA PUNILLA,-33.1261155349737137,-65.1122602148508065,74
746140,LAVAISSE,-33.822863159266376,-65.424375720336073,74
746147,ANCHORENA,-35.6729611617830287,-65.4302210648368714,74
746154,ARIZONA,-35.7270528785446331,-65.3157176252592109,74
746161,BAGUAL,-35.1430062488725525,-65.5694561123145832,74
746168,BATAVIA,-34.7784823489820525,-65.6871985106841692,74
746189,NAVIA,-34.7527440852597849,-66.5657005724896607,74
746196,NUEVA GALIA,-35.1153083584884769,-65.2538594145069482,74
746203,CARPINTERIA,-32.4108231858127311,-64.9985692378464535,74
746210,LAFINUR,-32.085905546925467,-65.3481684053950005,74
746217,LOS MOLLES,-32.4541506828014263,-64.9990072643336418,74
746224,TALITA,-32.2253766754597848,-65.5745389834180372,74
746231,ALTO PELADO,-33.8241276567794031,-66.1255415411401088,74
746238,ALTO PENCOSO,-33.4319845531256306,-66.9268856281153717,74
746245,BALDE,-33.4521935892927331,-66.6363665748128113,74
746252,BEAZLEY,-33.7572721991329132,-66.6446207562443789,74
746259,EL VOLCAN,-33.2673740566263234,-66.1474909524644374,74
746266,P. DE LOS  FUNES,-33.2101067937679844,-66.2316846459175537,74
746273,SAN JERONIMO,-33.1617646921591103,-66.5094866216828535,74
746280,ZANJITAS,-33.8049276377292642,-66.4148690167955351,74
746287,LAS VERTIENTES,-32.7905137799324464,-65.7509326074954998,74
746294,LAS AGUADAS,-32.3754702752367862,-65.5009524526762874,74
746301,LAS CHACRAS,-32.5633795921196025,-65.7796055226069427,74
746308,LAS LAGUNAS,-32.6286670748448273,-65.5479977710782293,74
746315,PASO GRANDE,-32.8695786125613267,-65.645206029860816,74
746322,"V, DE PRAGA",-32.5330352260902202,-65.6438203657219219,74
749007,LA PUNTA,-33.1753715269425413,-66.3583807823883944,74
749119,JUAN JORBA,-33.6151941989637919,-65.2726607834123769,74
749175,FORTIN EL PATRIA,-34.7739596252621155,-65.5216731228319134,74
749182,FORTUNA,-35.131870127727673,-65.3883623457859073,74
749999,LOS CAJONES,-32.0524080265345077,-65.5034160086847521,74
820277,VENADO TUERTO,-33.7518202806304757,-61.9744594399441624,82
820007,ARMSTRONG,-32.8821841927186469,-61.6467090866212004,82
820014,LAS PAREJAS,-32.647557058393609,-61.5805144134391114,82
820021,LAS ROSAS,-32.4624669041901086,-61.6293536644398117,82
820028,CASILDA,-33.0496734903785452,-61.1906668618457772,82
820035,FRONTERA,-31.4736517966507279,-62.038842757418621,82
820042,RAFAELA,-31.2423283955577453,-61.4875615908817039,82
820049,SUNCHALES,-30.9512953414672758,-61.5830166844306959,82
820056,VILLA CONSTITUCIÓN,-33.242503514408007,-60.3189290088334218,82
820063,FIRMAT,-33.4467661872121909,-61.4845915557249256,82
820070,RUFINO,-34.2413725014123145,-62.6421229474985921,82
820084,VILLA CAÑÁS,-34.0190906471634591,-61.6054429048330476,82
820091,AVELLANEDA,-29.0659341304612902,-59.535506640347343,82
820098,LAS TOSCAS,-28.3336988041535527,-59.2487181017622859,82
820105,MALABRIGO,-29.3304443850771399,-59.9197683451083307,82
820112,RECONQUISTA,-29.2273963710043319,-59.6145182688201416,82
820126,CAÑADA DE GÓMEZ,-32.8434090262570066,-61.4282037638466392,82
820133,TOTORAS,-32.5834468055121818,-61.2206195299341829,82
820140,LAGUNA PAIVA,-31.3039882761945805,-60.6655561130064243,82
820144,RECREO,-31.4934750126065275,-60.7360555112084199,82
820147,SANTA FE,-31.6551557199553244,-60.6387714501755326,82
820154,SANTO TOMÉ,-31.6486515852289045,-60.7890247854108381,82
820161,ESPERANZA,-31.4385590389521319,-60.8895310821132583,82
820168,SAN CARLOS CENTRO,-31.7036916909090785,-61.1371667633434726,82
820175,TOSTADO,-29.2389580395485922,-61.4452591934109691,82
820182,ARROYO SECO,-33.1690763212676814,-60.5458497884712727,82
820189,FUNES,-32.9257676944926914,-60.8261607949761398,82
820196,GRANADERO BAIGORRIA,-32.8513187425263524,-60.7040059945102186,82
820203,PÉREZ,-32.9982620628377674,-60.7969296352688744,82
820217,VILLA GOBERNADOR GÁLVEZ,-33.0286859947429789,-60.6266965797524762,82
820224,CERES,-29.8518920386987148,-61.9210332082824024,82
820231,SAN CRISTÓBAL,-30.2369464342855672,-61.0979078285954031,82
820238,SAN JAVIER,-30.4558826911086378,-59.8905516743231914,82
820245,CORONDA,-31.9806759524361262,-60.8664313743488776,82
820252,GÁLVEZ,-32.041132691986526,-61.2351211450964072,82
820256,SAN GENARO,-32.3579824255303805,-61.2663150946778288,82
820259,SAN JUSTO,-30.8046074901493867,-60.422449572666828,82
820266,CAPITÁN BERMÚDEZ,-32.8201185294456579,-60.7155011280833534,82
820273,CARCARAÑÁ,-32.8981441181935992,-61.1309925667750207,82
820280,FRAY LUIS BELTRÁN,-32.7862746028974783,-60.7339969495167082,82
820294,ROLDÁN,-32.8957783490773679,-60.9187521819630788,82
820301,SAN LORENZO,-32.7444112324121122,-60.7520288999292148,82
820308,EL TRÉBOL,-32.2116390000008579,-61.7060904540149977,82
820315,SAN JORGE,-31.9116126709521843,-61.8805263599438362,82
820322,SASTRE,-31.771279711213861,-61.8336440235563103,82
820329,CALCHAQUÍ,-29.8814121219406665,-60.3771331093142862,82
820336,VERA,-29.4127008748965615,-60.3749387661251617,82
82119,VILLA OCAMPO,-28.4942619198270499,-59.2813301197322176,82
822007,BOUQUET,-32.4169834004817901,-61.8772106360395853,82
822014,MONTES DE OCA,-32.6304057747773726,-61.7894896795213171,82
822021,TORTUGAS,-32.8223554883576227,-61.7391349322218872,82
822028,AREQUITO,-33.1514565982897622,-61.5075643530562459,82
822035,ARTEAGA,-33.1368578390942048,-61.8363472412872852,82
822042,BERABEVÚ,-33.2950393682508121,-61.8668567595637384,82
822049,BIGAND,-33.3710199794765785,-61.1845657738739703,82
822056,CHABAS,-33.2624921319240912,-61.3642886237022438,82
822063,CHAÑAR LADEADO,-33.3079861342603536,-62.0036810567070731,82
822070,GÖDEKEN,-33.4139104479582798,-61.8824911849557751,82
822077,LOS MOLINOS,-33.0630760180591494,-61.3515661128830345,82
822084,LOS QUIRQUINCHOS,-33.3121265044985719,-61.715753522762185,82
822091,SAN JOSÉ DE LA ESQUINA,-33.1572759335161535,-61.6885050572592775,82
822098,SANFORD,-33.1857451820985645,-61.23322945028562,82
82210,ROSARIO,-32.9489590047443386,-60.698084296369359,82
822105,VILLADA,-33.3390518480358509,-61.4954681918428747,82
822112,ANGÉLICA,-31.5216603668338635,-61.5042325557348661,82
822119,ATALIVA,-30.9962504496125568,-61.431801514520636,82
822126,AURELIA,-31.3921074922445129,-61.4134539756017404,82
822133,BAUER Y SIGEL,-31.2647447206285527,-61.9502905535617359,82
822140,BELLA ITALIA,-31.2622960932672953,-61.3812054149924293,82
822147,COLONIA ALDAO,-30.9857555355997469,-61.7400552024928189,82
822154,COLONIA BICHA,-30.8610047560585663,-61.8404933743742049,82
822161,COLONIA BIGAND,-31.0667175033934129,-61.7175552473552997,82
822168,CASTELLANOS,-31.1589792060729245,-61.7393661969737479,82
822175,COLONIA CELLO,-31.4429220929439843,-61.8690954995392133,82
822182,COLONIA ITURRASPE,-31.4872374386428717,-61.6182940033774855,82
822189,COLONIA MARGARITA,-31.6832565715807029,-61.6520048498336237,82
822196,COLONIA RAQUEL,-30.8228701986044591,-61.5053825202058491,82
822203,CORONEL FRAGA,-31.1787533398122925,-61.9271244055916625,82
822210,EGUSQUIZA,-31.0944039294014374,-61.6230238924310711,82
822217,ESMERALDA,-31.627116574383507,-61.9994639017834785,82
822224,ESTACIÓN CLUCELLAS,-31.525259025691728,-61.7126891104404436,82
822231,EUSEBIA Y CAROLINA,-30.9415593669600035,-61.8600693100494112,82
822238,EUSTOLIA,-31.5807528856734834,-61.7656861272865854,82
822245,FIDELA,-31.0524241754990946,-61.7998595299659641,82
822252,GALISTEO,-31.0188302273946057,-61.3261640759401345,82
822259,GARIBALDI,-31.6567052458795466,-61.8581121485344596,82
822266,HUGENTOBLER,-30.9141614845637314,-61.7572439282049999,82
822273,HUMBERTO PRIMO,-30.8688823528339711,-61.3471968909725334,82
822280,JOSEFINA,-31.3919642706150945,-61.9786523589757934,82
822287,LEHMANN,-31.126215766896884,-61.4334542945861131,82
822294,MARÍA JUANA,-31.6755447810503767,-61.7508020504525703,82
822301,MAUA,-30.7754677444429916,-61.2600717296398685,82
822308,PLAZA CLUCELLAS,-31.437706031283664,-61.72236495830645,82
822315,PRESIDENTE ROCA,-31.2146434131101138,-61.6208017366654133,82
822322,PUEBLO MARINI,-31.0204426946953653,-61.8822792978699638,82
822329,RAMONA,-31.1014829180854875,-61.9052281325663714,82
822336,SAGUIER,-31.3372278156435051,-61.689560462723243,82
822343,SAN ANTONIO,-31.2509698583399782,-61.761178106570469,82
822350,SAN VICENTE,-31.684152725764541,-61.5648309204330815,82
822357,SANTA CLARA DE SAGUIER,-31.3362205253631423,-61.8191081325281999,82
822364,SUSANA,-31.3721186116186672,-61.5304778599987756,82
822371,TACURAL,-30.8033974734615832,-61.6144506254622328,82
822378,TACURALES,-30.8161716440531244,-61.756105625017959,82
822385,VILA,-31.1903880171580674,-61.8328200400665295,82
822392,VILLA SAN JOSÉ,-31.3398681543485012,-61.6167311160056883,82
822399,VIRGINIA,-30.7574324549798277,-61.3669141688790276,82
822406,ZENÓN PEREYRA,-31.5489943704143379,-61.9603711602555407,82
822413,ALCORTA,-33.5768599189388794,-61.1369934634345427,82
822420,BOMBAL,-33.4572041858145042,-61.3052277159594254,82
822427,CAÑADA RICA,-33.534519721210188,-60.6433660436221729,82
822434,CEPEDA,-33.4041900910833078,-60.5863509794203026,82
822441,EMPALME VILLA CONSTITUCIÓN,-33.2818339398833203,-60.4006220966772887,82
822448,GENERAL GELLY,-33.6039733024624638,-60.5638509648398298,82
822455,GODOY,-33.4159667129409002,-60.4723055010023174,82
822462,JUAN BERNABÉ MOLINA,-33.5272345570570849,-60.4979236942086587,82
822469,JUNCAL,-33.7131345050997453,-61.0938153477268386,82
822476,LA VANGUARDIA,-33.3649961070119332,-60.7050628777746297,82
822483,M9XIMO PAZ,-33.5046629023070111,-60.9632294864284461,82
822490,PAVÓN,-33.2423832201544585,-60.4124784992033383,82
822497,PAVÓN ARRIBA,-33.3409315517595459,-60.8687429181653954,82
822504,PEYRANO,-33.5149086667288145,-60.7830705827464044,82
822511,RUEDA,-33.3591482860066506,-60.4258017183045126,82
822518,SANTA TERESA,-33.412217229658701,-60.820048366157117,82
822525,SARGENTO CABRAL,-33.456671988724672,-60.6628323941404659,82
822532,THEOBALD,-33.3293737516617199,-60.3485463027432161,82
822539,CAYASTÁ,-31.226923719736071,-60.2433549075188282,82
822546,COLONIA MASCIAS,-30.7725602238068667,-59.9651810585308453,82
822553,HELVECIA,-31.0642525453230718,-60.1186164444114013,82
822560,SALADERO MARIANO CABAL,-30.9263607618271728,-60.0480533134826189,82
822567,SANTA ROSA DE CALCHINES,-31.405091105905651,-60.3232768342223054,82
822574,AARÓN CASTELLANOS,-34.3009579908086693,-62.329186778128495,82
822581,AMENÁBAR,-34.0808111397626945,-62.410660981549519,82
822588,CAFFERATA,-33.4800452654041862,-62.086892987193437,82
822595,CAÑADA DEL  UCLE,-33.3931162937243471,-61.6450157292705185,82
822602,CARMEN,-33.6869903501738719,-61.7809193437975281,82
822609,CARRERAS,-33.625153259247476,-61.3528987414283478,82
822616,CHAPUY,-33.806037066311184,-61.7629859351878423,82
822623,CHOVET,-33.549866744569222,-61.6504491902120435,82
822630,CHRISTOPHERSEN,-34.1766468939856765,-62.0669267336754942,82
822637,DIEGO DE ALVEAR,-34.3109550568000259,-62.1448112331167337,82
822644,ELORTONDO,-33.7743928763854342,-61.5768623551580845,82
822651,HUGHES,-33.8289201098464076,-61.3698198632529142,82
822658,LA CHISPA,-33.541936744233027,-61.963806943274399,82
822665,LABORDEBOY,-33.7187441454907884,-61.2931820872950723,82
822672,LAZZARINO,-34.238133749683783,-62.4179437231131047,82
822679,MAGGIOLO,-33.7396897872561041,-62.2594730717287206,82
822686,MARÍA TERESA,-34.0395665841678365,-61.9128668122657615,82
822693,MELINCUÉ,-33.6716299274826056,-61.4800391616203328,82
822700,MIGUEL TORRES,-33.5358302476391401,-61.4455173944434421,82
822707,MURPHY,-33.5651286316928648,-61.8493297977915617,82
822714,SAN EDUARDO,-33.9052421066898546,-62.1203702108473905,82
822721,SAN FRANCISCO DE SANTA FE,-33.5987741853172395,-62.1410549134040409,82
822728,SAN GREGORIO,-34.2656010564825664,-61.8917105973606283,82
822735,SANCTI SPIRITU,-33.9895390805554598,-62.2912046220743889,82
822742,SANTA ISABEL,-33.8999932608857222,-61.7327604188631511,82
822749,TEODELINA,-34.1932681090876471,-61.6062871353185102,82
822756,WHEELWRIGHT,-33.8668306170448048,-61.2514088693738543,82
822763,ARROYO CEIBAL,-28.714988168466526,-59.3815838624303467,82
822770,BERNA,-29.2271092112468054,-59.9081439943422467,82
822777,EL ARAZÁ,-29.1213769640089595,-59.9920127998863393,82
822784,EL RABÓN,-28.2131623564397778,-59.2515639709425557,82
822791,EL SOMBRERITO,-28.6412656897105791,-59.277313770176967,82
822798,FLORENCIA,-28.0691596081599251,-59.1445499154819387,82
822805,GUADALUPE NORTE,-28.9633631140972696,-59.4143676323244563,82
822812,INGENIERO CHANOURDIE,-28.6798978864083267,-59.6629245992143566,82
822819,LA SARITA,-28.9623862902098566,-59.8866792710683313,82
822826,LANTERI,-28.8470500548191922,-59.6773729365482097,82
822833,LAS GARZAS,-28.848570216171165,-59.3466108834928647,82
822840,LOS LAURELES,-29.3713409435324735,-59.6869269518744545,82
822847,NICANOR MOLINAS,-29.1516621451376423,-59.8239493225463548,82
822854,SAN ANTONIO DE OBLIGADO,-28.3868266481117644,-59.314655942689221,82
822861,TACUARENDÍ,-28.4231273428114761,-59.2907991786096815,82
822868,VILLA ANA,-28.4145736812911842,-59.6366616081517975,82
82287,PUERTO GENERAL SAN MARTÍN,-32.6821639527933385,-60.7505144595756903,82
822875,VILLA GUILLERMINA,-28.1380903982547785,-59.6015786536188301,82
822882,BUSTINZA,-32.6894261984961503,-61.3524022732471082,82
822889,CARRIZALES,-32.5088944503694677,-61.0545249334282403,82
822896,CLASON,-32.4901170251451532,-61.34901270093237,82
822903,CORREA,-32.8661284216726983,-61.2556105340175279,82
822910,LUCIO V. LÓPEZ,-32.7559630469566159,-61.0737388987249261,82
822917,OLIVEROS,-32.5308038570063118,-60.8984798896629869,82
822924,PUEBLO ANDINO,-32.6562575730710947,-60.8950897190287037,82
822931,SALTO GRANDE,-32.6908912128987694,-61.1174499429479425,82
822938,SERODINO,-32.6127878713444161,-60.9650705458428135,82
822945,VILLA ELOÍSA,-32.9790976473900486,-61.5854778267263399,82
822952,ARROYO AGUIAR,-31.4107990800836703,-60.6125961254153935,82
822959,ARROYO LEYES,-31.5426514767853448,-60.4683779918802813,82
822966,CABAL,-31.1047189527505878,-60.7457774013043803,82
822973,CAMPO ANDINO,-31.2742893672832416,-60.5427040269028041,82
822980,CANDIOTI,-31.3933381338547619,-60.759657063536423,82
822987,EMILIA,-31.0545059210377161,-60.7465206018549324,82
822994,LLAMBI CAMPBELL,-31.1753913273891783,-60.6962038548563214,82
823001,MONTE VERA,-31.5216062634080352,-60.6571879491945225,82
823008,NELSON,-31.2949655514904954,-60.8134512895267605,82
823022,SAN JOSÉ DEL  RINCÓN,-31.6105210975463962,-60.5161613565596568,82
823029,SAUCE VIEJO,-31.7939652943411915,-60.7838926811252946,82
823036,CAVOUR,-31.3872673145397769,-60.9954046960921801,82
823043,COLONIA SAN JOSÉ,-31.6223065299908477,-60.8614530918889756,82
823050,CULULÚ,-31.2478117037022116,-60.9262185029575534,82
823057,ELISA,-30.6910583948190379,-61.1094233967844431,82
823064,EMPALME SAN CARLOS,-31.5479987890799549,-60.8317705318505446,82
823071,FELICIA,-31.2182040726477368,-61.231920130103191,82
823078,FRANCK,-31.5869277209191175,-60.9378478799338765,82
823085,GRUTLY,-31.2376882388849566,-61.0940311148995292,82
823092,HIPATÍA,-31.0997692458585,-61.074660932951339,82
823099,HUMBOLDT,-31.4018426247072853,-61.1185199212055394,82
823106,ITUZAINGÓ,-30.8148965134573416,-61.1425699547602761,82
823113,JACINTO L. ARAUZ,-30.7206002392582462,-60.9560890781576319,82
823120,LA PELADA,-30.862891336567408,-60.9334996977920227,82
823127,LAS TUNAS,-31.5694628868887222,-61.0124260255542126,82
823134,"MARÍA LUISA
MARÍA LUISA
MARÍA LUISA",-31.0187839005544177,-60.8916036081997945,82
823141,MATILDE,-31.7909169859256941,-61.0206835646197803,82
823148,NUEVO TORINO,-31.3321781238898751,-61.2599535857300808,82
