nombre,cod_muni,cod_prov,lat,lon
SANTA CATALINA,386147,38,-22.0322033691541073,-66.1405716072481056
CIENEGUILLAS,386133,38,-22.1254725215270618,-65.9419011195485041
LA QUIACA,380406,38,-22.1475151640072951,-65.6497996902659082
CUSI CUSI,386140,38,-22.4474904125097154,-66.673920759070441
YAVI,386273,38,-22.1949119799290955,-65.3412864273207674
PUMAHUASI,386266,38,-22.3191975563463068,-65.7808960012592649
BARRIOS,386245,38,-22.2821895352064701,-65.5258263700185921
RINCONADA,386077,38,-22.4660000653538852,-66.1133735661478141
HIPÓLITO YRIGOYEN,386056,38,-22.8762004894493742,-65.3461753528269611
ABRA PAMPA,380014,38,-22.8431449411787639,-66.0322682108587742
GENERAL ALVARADO,060280,06,-38.2027130466248721,-58.072248572211123
GENERAL PUEYRREDÓN,060357,06,-37.9656760017007926,-57.7431440390759505
MAR CHIQUITA,060518,06,-37.4984341236930732,-57.6436183313312469
VILLA GESELL,060868,06,-37.3705193836345515,-57.0658445952167099
PINAMAR,060644,06,-37.1099458733890231,-56.8696753983417906
EL CÓNDOR,386259,38,-22.414030404423972,-65.3795310298622923
MINA PIRQUITAS,386070,38,-22.7192976639660351,-66.6315369299640707
HUACALERA,386175,38,-23.3977683815659319,-65.3946655371627372
CATUA,386154,38,-23.66010372615035,-66.9591888909713475
PURMAMARCA,386189,38,-23.7073529764014879,-65.7590928734087043
CANGREJILLOS,386252,38,-22.443899959547565,-65.5405751330490745
PUESTO DEL  MARQUÉS,386021,38,-22.5922176518710778,-65.6032729734535707
TRES CRUCES,386063,38,-22.9377695400232291,-65.5450743065681678
ABRALAITE,386014,38,-23.1358937646647433,-65.7922094301539602
HUMAHUACA,380105,38,-23.1799985189676079,-65.3082290737848155
ABDÓN CASTRO TOLAY,386007,38,-23.3201640640822241,-65.9917423948271278
CORANZULI,386161,38,-23.194626094951218,-66.614526284725045
EL AGUILAR,380091,38,-23.2109438569514595,-65.6379141890805329
SUSQUES,386168,38,-23.7054223180767032,-66.5588749659573011
CASPALÁ,386210,38,-23.3445752039666452,-65.083156164822995
TILCARA,380329,38,-23.6181762353082405,-65.2742920000779208
PAMPICHUELA,386217,38,-23.5633995980457556,-65.045223227279692
VALLE GRANDE,386238,38,-23.4986147763442581,-64.9305440560603273
YUTO,380147,38,-23.5649915036096047,-64.6178064922001312
CAIMANCITO,380119,38,-23.6468833920893964,-64.6976261158453951
GODOY CRUZ,500021,50,-32.9297600556688508,-68.8890844545154977
SANTA ANA,386231,38,-23.362964867329385,-64.9606161480750188
EL TALAR,380238,38,-23.5769537697376563,-64.2913869716121411
SAN FRANCISCO,386224,38,-23.6236121126706173,-64.9242015066972442
MAIMARÁ,386182,38,-23.6423715717053291,-65.4364492243532538
CALILEGUA,380126,38,-23.7336839551609273,-64.7601461359254102
VINALITO,386126,38,-23.7307638894877364,-64.3534086128734373
LIBERTADOR GENERAL SAN MARTÍN,380140,38,-23.8316438581041616,-64.851466711643198
FRAILE PINTADO,380133,38,-23.9229619249258292,-64.9543223731295853
TUMBAYA,386196,38,-23.8140533222167079,-65.4938002318189234
VOLCÁN,386203,38,-23.899326838187342,-65.4107118105984284
PALMA SOLA,380245,38,-24.0747906107903624,-64.3074515630431591
YALA,386028,38,-24.0245351929013253,-65.4612010689141641
EL PIQUETE,386119,38,-24.0318634646700602,-64.5780392132909498
PALPALÁ,380154,38,-24.1949225190466386,-65.1264498125423188
SAN SALVADOR DE JUJUY,380035,38,-24.1943902774618245,-65.4189887578637013
ARRAYANAL,386091,38,-24.1313201861623519,-64.7788900953339493
LA ESPERANZA,380196,38,-24.2041715000581057,-64.7720910953120921
EL BORDO,660112,66,-24.5863532648531979,-65.1601375683570723
GUACHIPAS,660168,66,-25.7029452739388198,-65.4445328508853947
GENERAL LAVALLE,060336,06,-36.6518890133330757,-56.9422695810825488
LA COSTA,060420,06,-36.6782018340746276,-56.7189105106818516
MAGDALENA,060505,06,-35.1849498630335944,-57.6863916153998346
VICENTE LÓPEZ,060861,06,-34.5265446626320269,-58.5043886623589557
PERGAMINO,060623,06,-33.8358155353661232,-60.5450748689576059
RAUCH,060672,06,-36.5722509524193171,-58.944406130217196
EL FUERTE,386098,38,-24.3217934967158413,-64.4580224346764226
RODEÍTO,386105,38,-24.308415962954399,-64.7978944714527074
SANTA CLARA,380252,38,-24.2734316258699145,-64.6096326715893667
LA MENDIETA,380203,38,-24.2955921038521261,-65.0074267062509392
SAN ANTONIO,386084,38,-24.3467258627678049,-65.4468529258409006
ROSARIO DE RÍO GRANDE,386112,38,-24.3672726216848581,-64.9045281380552694
EL CARMEN,380056,38,-24.4162328438079008,-65.2749306821561959
PERICO,380077,38,-24.3919724186330136,-65.0852675017875697
LAS LAJITAS,660035,66,-24.9101681976983613,-64.5809409708696762
APOLINARIO SARAVIA,660007,66,-24.5066508305036415,-64.1465067882369766
ISLA DE CAÑAS,660182,66,-22.8751953756976825,-64.6309520432881897
ROSARIO DE LA FRONTERA,660357,66,-25.8170544470769521,-64.9983575611145028
GENERAL MOSCONI,660147,66,-22.6055769659414914,-63.978239637058671
LOS TOLDOS,660399,66,-22.4689957526383921,-64.6575099735318446
LA CALDERA,660189,66,-24.5621288281222476,-65.361858778693545
EL GALPÓN,660259,66,-25.4373334069771388,-64.3349384487265468
CORONEL MOLDES,660231,66,-25.2941908506984632,-65.414425820110651
PICHANAL,660308,66,-23.7226972591019738,-63.842127526086756
SALLIQUELÓ,060721,06,-36.6710137553166717,-63.0491259803333861
PUESTO VIEJO,386049,38,-24.4724198554792203,-64.958933317620847
TARTAGAL,660161,66,-22.5227285321063526,-63.4562279353983811
IRUYA,660175,66,-22.7966676792670881,-65.0072973667770668
BERAZATEGUI,060091,06,-34.8179736855798581,-58.155262691914686
TORNQUIST,060819,06,-38.2557858016680257,-62.290424980392352
CORONEL PRINGLES,060196,06,-38.1477437843901939,-61.2646589620305377
MONTERRICO,380063,38,-24.4592180378991841,-65.1355981658048364
CHICOANA,660091,66,-25.1596228132599578,-65.6740171346466468
GENERAL BELGRANO,460063,46,-30.577691650215165,-65.9316310510946693
VINCHINA,460098,46,-28.3164203776533299,-68.5253984631141577
LEANDRO N. ALEM,540280,54,-27.6147941830124211,-55.3290426299370779
COLONIA WANDA,540231,54,-25.9785302468045565,-54.3136321775286532
TIGRE,060805,06,-34.3815893993370807,-58.5994539881249565
PAMPA BLANCA,386042,38,-24.5380294825292644,-65.0401221007485475
COLONIA SANTA ROSA,660294,66,-23.3864185280625598,-64.3935047544791246
EL JARDÍN,660203,66,-26.035714584349325,-65.4415593896556231
SAN ANTONIO DE LOS  COBRES,660245,66,-24.5764136788651761,-66.8151404670903304
MOLINOS,660273,66,-25.6130750355803833,-66.4892603979025409
RIVADAVIA BANDA NORTE,660329,66,-23.3621158597431062,-62.7552635995286252
PROFESOR SALVADOR MAZZA,660154,66,-22.0806947381939551,-63.67449160727368
AGUAS CALIENTES,386035,38,-24.5653059933412266,-64.9371057987964235
SAN PEDRO DE JUJUY,380224,38,-24.3120783575939541,-64.7901598595736345
TOLAR GRANDE,660252,66,-24.6951301961002549,-67.7458583264751439
CAFAYATE,660056,66,-26.1255058750695568,-65.8800845785599876
CERRILLOS,660077,66,-24.9165899415055812,-65.4227277758729429
EMBARCACIÓN,660133,66,-23.2139456004595566,-63.686747485489299
RÍO PIEDRAS,660280,66,-25.2657044540023321,-65.0359297190078394
GENERAL GÜEMES,660119,66,-24.8000501678008689,-64.9080381225922594
SANTA VICTORIA ESTE,660343,66,-22.41761118111679,-62.8122067292646733
CAMPO QUIJANO,660364,66,-24.5034690170850098,-65.869399316352073
ANGASTACO,660378,66,-25.929833325586408,-66.3372867377434545
AGUARAY,660126,66,-22.1863764264673655,-63.5496991956857258
SAN CARLOS,660392,66,-25.6101715768952864,-65.9299075522856697
LA POMA,660224,66,-24.1469187623340424,-66.2073263767371998
SANTA VICTORIA OESTE,660413,66,-22.2585509228288636,-65.0145224579477485
NAZARENO,660406,66,-22.4901350156832791,-65.045789354706784
EL POTRERO,660350,66,-25.9037792359637535,-64.570461229858708
CASTRO BARROS,460021,46,-28.8599829479000825,-66.9185847556269096
ANIMANÁ,660385,66,-25.9582267266097233,-65.9762475210555834
METÁN,660266,66,-25.5135434924207836,-64.9767191434930282
HIPÓLITO YRIGOYEN,660301,66,-23.260511768567607,-64.2957534665367092
VALLE VIEJO,100238,10,-28.5987180771599903,-65.7071874333265384
ANCASTI,100035,10,-28.9266654118728894,-65.5038099239122715
ANTOFAGASTA DE LA SIERRA,100056,10,-25.9455797002437443,-67.6777645029397092
FIAMBALÁ,100224,10,-27.3742769412863645,-68.0496004163813382
TINOGASTA,100231,10,-28.0802347313231522,-67.5384662106014844
LONDRES,100084,10,-27.8537703637582759,-67.1506538679793152
SAN LORENZO,660070,66,-24.7507448986605105,-65.5329792794034489
URUNDEL,660322,66,-23.4570326025109175,-64.5840481244822939
CARAGUATAY,540336,54,-26.786188843339076,-54.668293376144355
CAMPO SANTO,660105,66,-24.6921051071381612,-65.1385711455028513
LA VIÑA,660238,66,-25.5361582471497996,-65.6768022184738527
POZO DE PIEDRA,100091,10,-27.5461401411272391,-67.1694075115444633
BELÉN,100063,10,-27.7111201189353658,-66.8474922447290254
BUEN PASTO,268119,26,-45.0683165691959999,-69.4653884108616069
EL TALA,660210,66,-26.0211681588359269,-65.2730423705619529
SAN FERNANDO,100112,10,-27.3077227595379277,-66.8569085255965803
PUERTA DE SAN JOSÉ,100105,10,-27.4335053633268018,-66.9462225585684507
HUALFÍN,100077,10,-27.2327739205627388,-66.6867349793276674
VILLA VIL,100119,10,-26.5488558545602409,-66.807575587208774
MONTECARLO,540343,54,-26.6388110114284231,-54.5613983025049762
CARRENLEUFÚ,268056,26,-43.5775203888784119,-71.6561282123594481
LA CANDELARIA,660217,66,-26.1388785962188059,-65.0289418135702562
SECLANTÁS,660287,66,-25.2908465900776598,-66.2193251725653198
LA MERCED,660084,66,-25.0395625548901073,-65.3904542120283878
GENERAL BALLIVIÁN,660140,66,-22.8977332748781279,-63.6228257844101677
SAN RAMÓN DE LA NUEVA ORÁN,660315,66,-23.0848886924830126,-64.6093862548788564
JOAQUÍN V. GONZÁLEZ,660028,66,-24.7923476420040068,-63.6538145950213519
PASO AGUERRE,585119,58,-39.3365722197045429,-69.7956444882817522
GENERAL PIZARRO,660021,66,-24.273156453612625,-63.855731689513064
SALTA,660063,66,-24.9216984420797942,-65.2407273845383884
VAQUEROS,660196,66,-24.5627955475210413,-65.5476759943033613
EL QUEBRACHAL,660014,66,-25.3951182356290843,-63.5716971394089185
ROSARIO DE LERMA,660371,66,-24.9896500552557761,-65.6890576785536098
EL CARRIL,660098,66,-25.1273759330098123,-65.404641249823797
SAN MARTÍN DE LOS  ANDES,580119,58,-40.1347992136533591,-71.3015414173336097
LAS OVEJAS,580154,58,-36.8419567404505841,-70.9180527399826417
RIVADAVIA BANDA SUR,660336,66,-24.3108915146437923,-62.9350817153995479
LEONI,540315,54,-26.9917196382209177,-55.1360375770859221
PAYOGASTA,660049,66,-24.9895645901527885,-66.004560419224731
CACHI,660042,66,-25.0649060665187093,-66.2820631895673813
LUCA,140322,14,-32.5401247632302315,-63.4773914681507563
PUERTA DE CORRAL QUEMADO,100098,10,-27.2602279002263259,-67.1391373436803605
SAN JOSÉ,100203,10,-26.8778834110203348,-66.2971211607981701
SANTA MARÍA,100210,10,-26.4929339197445906,-66.1496524320488106
ACONQUIJA,100042,10,-27.5035405012381418,-66.0582983765108338
ANDALGALÁ,100049,10,-27.5535805469094974,-66.4219289567448072
SAUJIL,100196,10,-28.0574573700850891,-66.4024102061299715
POMÁN,100189,10,-28.4116754719959559,-66.4313284959768282
MUTQUÍN,100185,10,-28.310697521461119,-66.1479259632377818
LOS VARELA,100028,10,-27.8547966718317035,-65.9246262281669004
LA PUERTA,100014,10,-28.1588888812784042,-65.8053978996786668
LAS JUNTAS,100021,10,-28.0518484074729848,-65.9674435724261201
EL RODEO,100007,10,-28.2412100324274107,-65.9465483637507077
ENRIQUE URIEN,220315,22,-27.7976804477473962,-60.4537324021048477
BARRANQUERAS,220385,22,-27.4821152611742896,-58.9196674519405406
SANTA ROSA,100217,10,-28.1157416876419965,-65.2407236956114502
LOS ALTOS,100213,10,-28.0392957521346879,-65.4509018337532211
EL ALTO,100147,10,-28.4229702192833571,-65.4303983855818529
ROSARIO VERA PEÑALOZA,460112,46,-31.4205977732086339,-66.6788621651991207
GENERAL PINTO,060351,06,-34.6683135253940904,-62.0397484845501452
RECREO,100175,10,-29.5256258739343664,-65.2019736615272478
HUILLAPIMA,100133,10,-28.6559829253265868,-65.9135566327798159
CAPAYÁN,100126,10,-29.0365947800972428,-65.8955424431811281
FRAY MAMERTO ESQUIÚ,100161,10,-28.3329401551220705,-65.7309008581155183
SAN FERNANDO DEL  VALLE DE CATAMARCA,100140,10,-28.4104559393525413,-65.8362002957156562
SAN CAYETANO,060742,06,-38.3886180658491512,-59.5866369475027895
TRES ARROYOS,060833,06,-38.5116665533312101,-60.2376664741025678
CORONEL DORREGO,060189,06,-38.6704811465080383,-61.0956539726773684
NECOCHEA,060581,06,-38.2555189703715897,-59.1673660597249054
LEZAMA,060466,06,-35.8494190496267251,-57.8957525655299534
CORRAL QUEMADO,100070,10,-26.9802628151927522,-67.0141675035392836
ARAUCO,460007,46,-28.5330735277515579,-66.7191515034156026
GENERAL LAMADRID,460077,46,-28.7904353562757045,-68.6977547342455495
ICAÑO,100168,10,-28.8613214720859474,-65.1509267339569931
PACLÍN,100182,10,-28.110049553415184,-65.6738760474971741
CHASCOMÚS,060218,06,-35.6187689428965868,-57.9043202817548845
PUNTA INDIO,060655,06,-35.4261581088970772,-57.3996034517523412
CAMPANA,060126,06,-34.138195728791203,-58.8830222693034244
LUCIO V. MANSILLA,141554,14,-29.7949326862785355,-64.6680541082337328
TAPSO,100154,10,-28.44723070821302,-65.199753347927583
INDEPENDENCIA,460105,46,-30.1144612462884211,-67.3355202231145284
GENERAL OCAMPO,460084,46,-31.0066417358943127,-66.0590548631785168
CHAMICAL,460035,46,-30.1677065304375169,-65.9562869452051785
COLONIA ROSA,823519,82,-30.3193186985735785,-62.0294040965481202
CAPITAL,460014,46,-29.460489857935773,-66.3525089002799291
CORONEL FELIPE VARELA,460028,46,-29.4497956052040415,-68.3284822964494225
SANAGASTA,460126,46,-29.1585269700687668,-67.0658836337792508
CHIMBAS,700042,70,-31.4874196948621261,-68.5239289662612805
CHARADAI,220469,22,-27.6443129888648755,-59.9622820759440884
CHILECITO,460042,46,-29.3959374753196343,-67.4278867892017217
HIPOLITO IRIGOYEN,540448,54,-27.0983401315946075,-55.3062256163995087
GENERAL ÁNGEL VICENTE PEÑALOZA,460056,46,-30.3128975389813924,-66.6630521188972409
GENERAL JUAN FACUNDO QUIROGA,460070,46,-30.8009590345359925,-66.8681045144560073
GENERAL SAN MARTÍN,460091,46,-31.6413069709298824,-66.1459756727951458
SAN JUAN,700028,70,-31.5330748483572307,-68.5342856277405872
FAMATINA,460049,46,-28.6973037998884308,-67.5592920371099268
SAN BLAS DE LOS  SAUCES,460119,46,-28.5433309062698619,-67.1581530652484844
IGLESIA,700049,70,-29.6066873518889331,-69.4379498926956273
VALLE FÉRTIL,700119,70,-30.7122962694162496,-67.5323035648389833
ULLUM,700112,70,-31.0904647062097368,-68.8815821606004874
ALBARDÓN,700007,70,-31.209634481055506,-68.4519807662305908
ZONDA,700133,70,-31.6381980593894667,-68.9555709233008685
COLONIA POLANA,540420,54,-27.0069464222169984,-55.3160008563554157
ALDAO,823981,82,-30.9857555355997469,-61.7400552024928189
SAN MARTÍN,700091,70,-31.5285412012606407,-68.2072931248825114
SANTA ROSA,500112,50,-33.6177946030972805,-67.9636620466004615
RAMONA,822329,82,-31.1014829180854875,-61.9052281325663714
RIVADAVIA,700084,70,-31.5542325394478524,-68.6416232535812441
SANTA LUCÍA,700098,70,-31.5327173670967227,-68.4634116809573783
9 DE JULIO,700063,70,-31.6458046846082226,-68.3890526964703156
RAWSON,700077,70,-31.6865858135557801,-68.4675631318926179
BAUER Y SIGEL,822133,82,-31.2647447206285527,-61.9502905535617359
POCITO,700070,70,-31.7459555808161191,-68.5842081096792668
GUAYMALLÉN,500028,50,-32.8910429154042347,-68.7323728513947856
FIDELA,822245,82,-31.0524241754990946,-61.7998595299659641
SARMIENTO,700105,70,-32.0735423225080183,-68.6911356211091118
ANGACO,700014,70,-31.1922192642061269,-68.131962579812722
CAUCETE,700035,70,-31.5063817025853012,-67.5458594420524747
JÁCHAL,700056,70,-30.3550759493247142,-68.4412683481451722
CALINGASTA,700021,70,-31.4533652386092797,-69.8338001250745606
25 DE MAYO,700126,70,-31.9896198488068961,-67.8274038980405578
LAS BREÑAS,220329,22,-26.945538697654186,-61.265257667745864
GENERAL VEDIA,220035,22,-26.82253828020594,-58.7281314225757285
RIVADAVIA,500084,50,-33.4197071097540004,-68.6121759957282933
LA PAZ,500042,50,-33.7114684971788918,-67.2475409227543821
MAIPÚ,500070,50,-32.9775099458465704,-68.652173990416415
CAÑADA DE RÍO PINTO,142266,14,-30.7405230006183814,-64.2526933568926921
TUPUNGATO,500126,50,-33.2915070191449871,-69.3019667535029527
GENERAL ALVEAR,500014,50,-35.2178364156831663,-67.080447328942725
SAN RAFAEL,500105,50,-34.9445449683129681,-68.382678312489503
SAN CARLOS,500091,50,-34.0753663961096009,-69.0977010128895728
TUNUYÁN,500119,50,-33.6223342938161807,-69.5078054633830362
LUJÁN DE CUYO,500063,50,-33.0382520812749263,-69.4437142136648333
LAS HERAS,500049,50,-32.5247668775426462,-69.2671757239401131
LAVALLE,500056,50,-32.5825853677510437,-67.889072704967063
MALARGÜE,500077,50,-36.1572730441954135,-69.3135099463235349
CAPITAL,500007,50,-32.880654104798495,-68.8921657602391662
JUNÍN,500035,50,-33.1462075241433496,-68.4803420038398656
SAN MARTÍN,500098,50,-32.9088785853185115,-68.2844229443887087
OBERNADOR LOPEZ,540273,54,-27.6350871646732301,-55.2122890705842408
SAN VICENTE,822350,82,-31.684152725764541,-61.5648309204330815
LIBERTAD,540224,54,-25.847729469820365,-54.4220851562687997
CAÑADA DEL  SAUCE,142021,14,-32.3827196464222595,-64.6369274751007765
PUERTO ESPERANZA,540210,54,-26.079523665012232,-54.4727294231952897
PRESIDENCIA ROQUE SÁENZ PEÑA,220077,22,-26.7871365617901205,-60.4618654285581627
9 DE JULIO,540161,54,-26.4329486125948563,-54.4903323987624688
SANTIAGO DE LINIERS,540168,54,-26.4033076306257968,-54.3571153030127334
PIRAY,540350,54,-26.5362186725097757,-54.4282248349143245
COLONIA VICTORIA,540147,54,-26.3247345813985802,-54.4035094897233478
ELDORADO,540154,54,-26.4210135651478915,-54.614709317447641
LORETO,540077,54,-27.3545071006188145,-55.5101829174962447
SANTA ANA,540098,54,-27.4077853633575366,-55.5961353882081895
CERRO COLORADO,142735,14,-30.1019030224683064,-63.9308316345370429
ANTO PIPO,540469,54,-27.2032730896976354,-55.2802181836956521
GOBERNADOR ROCA,540441,54,-27.2506643249014324,-55.3678818456715121
SAN ANTONIO,822343,82,-31.2509698583399782,-61.761178106570469
SAN IGNACIO,540462,54,-27.2891530226001073,-55.4611944197449276
CORPUS,540427,54,-27.1452907552755427,-55.5063407053191398
CERRO CORA,540070,54,-27.5244007560999009,-55.6011944460670193
ALMAFUERTE,540238,54,-27.5231719092878464,-55.3872057775924347
TRES CAPONES,540028,54,-27.9893713086057758,-55.6097183153979486
AZARA,540014,54,-28.0529661463923183,-55.6670557423349308
TRES ISLETAS,220301,22,-26.3210291409792596,-60.4553482590009708
ISLA DEL  CERRITO,220042,22,-27.3042028642529928,-58.6805128113910754
MARTIRES,540084,54,-27.4149872486620154,-55.3814194839074574
BOMPPLAND,540056,54,-27.4752184088827214,-55.4716257562187209
COLONIA BENITEZ,220364,22,-27.3100638470581316,-58.8542427774582748
SANTA CLARA DE SAGUIER,822357,82,-31.3362205253631423,-61.8191081325281999
CHAJÁN,140798,14,-33.556221670736349,-65.0045692987121697
CANDELARIA,540063,54,-27.4675024204132363,-55.7108902288120049
SAGUIER,822336,82,-31.3372278156435051,-61.689560462723243
ITACARUARE,540483,54,-27.8338754828560226,-55.2795538662312111
SAN JOSE,540021,54,-27.7726158068000899,-55.6669609389326894
ARROYO DEL  MEDIO,540245,54,-27.7266453880616801,-55.3943371617340361
CATRILÓ,420077,42,-36.4566752503383995,-63.4792036669961277
CONCEOCION DE LA  SIERRA,540126,54,-27.9974910430221016,-55.5138309394510969
GUARANI,540385,54,-27.5577786895038201,-55.1744468682236402
SANTA MARIA,540133,54,-27.8726670055256989,-55.4252391165887914
DOS ARROYOS,540266,54,-27.7025491045324479,-55.2675221521089597
QUITILIPI,220378,22,-26.6685132261826148,-60.1735021531371359
SAN JAVIER,540497,54,-27.8069975715528699,-55.1549229608965987
OBERA,540399,54,-27.4506142905540749,-55.1166605062299695
ROLÓN,420322,42,-37.123144146263968,-63.4697507510433496
CAMPO GRANDE,540042,54,-27.2254248794506388,-54.9626441008700155
RUIZ DE MONTOYA,540329,54,-27.0089967490944218,-55.0402849631610707
GENERAL VILLEGAS,060392,06,-34.7687371056865118,-62.9535454568401889
CASTELLI,060168,06,-36.0416694003038316,-57.6570625693146255
GARUHAPE,540308,54,-26.8829967744269283,-54.9058294075904456
MOJON GRANDE,540490,54,-27.7237301118638335,-55.1191906559715079
GRAL. ALVEAR,540378,54,-27.4172195627113169,-55.179081059297431
CAA-YARI,540252,54,-27.5123934376178525,-55.3043787900753756
ALMIRANTE BROWN,060028,06,-34.8355700988622559,-58.3673978494736829
COLONIA ALBERDI,540371,54,-27.3542151628711991,-55.2013521844281954
BRANDSEN,060119,06,-35.2221104711750712,-58.1760719473086141
AMEGHINO,540476,54,-27.6934329050528234,-55.0595200570998458
LOS HELECHOS,540392,54,-27.5682529996830397,-55.057952555271676
COLONIAS ELISA,220441,22,-26.9254012720409399,-59.4073885705905695
ALBA POSSE,540511,54,-27.4766767971940027,-54.7966824241762467
25 DE MAYO,540525,54,-27.3307499375688536,-54.6814838189636205
SAN ANTONIO,540189,54,-25.9940017103697301,-53.9396296648751274
BERNARDO DE IRIGOYEN,540175,54,-26.205383757273335,-53.9544719716255798
SAN VICENTE,540203,54,-26.9629871697117309,-54.4030528372227948
SAN PEDRO,540504,54,-26.6723465621610529,-53.9518534204145084
COLONIAS UNIDAS,220448,22,-26.698939293895517,-59.6206760397163151
JUAN PUJOL,180259,18,-30.3777496827948603,-57.8889139828733192
PUEBLO LIBERTADOR,180091,18,-30.2566420474996782,-59.318898844995168
MONTE CASEROS,180273,18,-30.1816229638282252,-57.8245096673467103
ENERAL J.J. URQUIZA,540434,54,-27.0490283683738078,-55.393162632121161
CERRO AZUL,540259,54,-27.6456965748634751,-55.5117371057503917
JARDIN AMERICA,540455,54,-27.0848150716789355,-55.1925114015096696
CAMPO VIERA,540364,54,-27.2794449755344317,-55.0708317700693328
COLONIA AURORA,540518,54,-27.3569618693075114,-54.4502002256499225
SAN MARTIN,540413,54,-27.4673750768551947,-55.2627466783463603
OLEGARIO V. ANDRADE,540287,54,-27.5632340001248153,-55.4947631959484653
IGUAZU,540217,54,-25.6741057378344095,-54.3814904040707887
CARLOS CASARES,060147,06,-35.7496551260772364,-61.3737522686863173
CARLOS TEJEDOR,060154,06,-35.3794889207729568,-62.4295611893428841
25 DE MAYO,060854,06,-35.5265113228111531,-60.2301576569223087
PANAMBI,540406,54,-27.6746685583138401,-54.9673011768080784
EL ALCAZAR,540301,54,-26.8418047316822843,-54.7738913116551345
9 DE JULIO,060588,06,-35.4811905782560189,-60.9751157295026971
ADOLFO VAN PRAET,425007,42,-35.0687880041611066,-64.0161738244231202
CAMPO RAMON,540357,54,-27.4788966392158613,-54.9635613773591203
POSADAS,540119,54,-27.4338385642160247,-55.9589603245269913
PEHUAJÓ,060609,06,-35.8833833438579362,-61.9271985156994305
TRENQUE LAUQUEN,060826,06,-36.056435273997586,-62.6346332497416256
GENERAL BELGRANO,060301,06,-35.8349745328235443,-58.6980461310919068
MONTE,060547,06,-35.510370293631901,-58.7694635013319484
ROQUE PÉREZ,060693,06,-35.4811110714387681,-59.3595940527063277
COLONIA DELICIA,540140,54,-26.2036343450029641,-54.397210343967366
CAPIOVI,540294,54,-26.9149975970323148,-55.0591463133588164
PUERTO RICO,540322,54,-26.842855132255945,-55.0447625921653554
EL SOBERBIO,540196,54,-27.0791936240670559,-54.156634017541613
COMANDANTE A. GUACURARY,540182,54,-25.7206975989675897,-54.0162291546211435
DORILA,420116,42,-35.7922732986449716,-63.7458253289186274
ARISTOBULO DEL  VALLE,540035,54,-27.1206229393641571,-54.828009732834559
DOS DE MAYO,540049,54,-27.0885559279628509,-54.6099340002624984
AGUADA SAN ROQUE,585014,58,-37.973867991489648,-68.9371469809988326
COVUNCO ABAJO,585133,58,-38.6166812663412031,-69.6916428096758267
FACHINAL,540105,54,-27.6649254071962503,-55.750532733701391
OCTAVIO PICO,585105,58,-37.6310256208454703,-68.3594661614186236
BUTA RANQUIL,580203,58,-37.2421306229287907,-69.8210409111221111
ROFUNDIDAD,540091,54,-27.554948448311297,-55.7198397826165959
AÑELO,580014,58,-38.3598393457538833,-68.8052191976130274
QUILI MALAL,585126,58,-38.4119191438239156,-69.750282757492883
MAISONNAVE,425098,42,-35.0449274835384799,-64.4002912370171003
ARUPA,540112,54,-27.5429862761484472,-55.8651858229225269
QUETREQUÉN,425119,42,-35.0450496068839144,-64.5365926709591662
APOSTOLES,540007,54,-27.9012545863988635,-55.7216746366407776
RINCÓN DE LOS  SAUCES,580210,58,-37.4279286578831645,-68.9048819508570318
CHALACEA,142630,14,-30.7632052336575157,-63.5769184254782189
BARRANCAS,580196,58,-36.8598372922576871,-69.9370599267060555
EL SAUCE,585112,58,-39.4816153694995862,-69.5258646816177759
LAS LAJAS,580231,58,-38.54472444067639,-70.3064166225065463
ZAPALA,580245,58,-38.9328385901676342,-70.1432085906335203
PICÚN LEUFÚ,580217,58,-39.5272959346431563,-69.3041340199496858
LAS COLORADAS,580028,58,-39.6076912118786737,-70.5825186548069325
SANTO TOMÁS,585035,58,-39.8409265275249354,-70.0938182756884487
PIEDRA DEL  ÁGUILA,580035,58,-40.0556599804127629,-70.0814261575928157
GUAÑACOS,585077,58,-37.2860435824025416,-70.9333362922708943
LOS MICHES,580161,58,-37.1472111349999494,-70.9641103407799108
VILLA DEL  NAHUEVE,585098,58,-37.0165803312122605,-70.9189370546609155
ANDACOLLO,580140,58,-37.2626267236257434,-70.6129787116710048
EL CHOLAR,580175,58,-37.4558329459089236,-70.6873431812616815
EL HUECÚ,580182,58,-37.649778249243937,-70.583348481791532
TAQUIMILÁN,580189,58,-37.591000103507767,-70.3458343954121119
LONCOPUÉ,580126,58,-38.1307636697429544,-70.6070114096581705
SENILLOSA,580077,58,-38.8537401188066767,-68.6794256506487102
VILLA PEHUENIA,580252,58,-38.9071357687471249,-71.1785013312735799
JUNÍN DE LOS  ANDES,580112,58,-39.9210969926668611,-71.0997656206867106
ALUMINÉ,580007,58,-39.234273402944325,-70.9120954468479283
RAMÓN CASTRO,585147,58,-38.969390640862386,-69.7563648428793357
AGUSTONI,425014,42,-35.7927871529689341,-63.4827268346080729
VILLA TRAFUL,585070,58,-40.6716922374748648,-71.3996881541688708
CAVIAHUE-COPAHUE,580168,58,-37.8563623456878844,-71.0450198744787116
NEUQUÉN,580056,58,-38.9446959754993003,-68.1001766838423208
CHANCANÍ,142406,14,-31.4141204299091861,-65.4541355537760694
PLOTTIER,580070,58,-38.9486355466446099,-68.2772667713434203
CENTENARIO,580042,58,-38.7973834665027297,-68.1756656510973471
OLAVARRÍA,060595,06,-36.8567012129546185,-60.6707349373353608
VISTA ALEGRE,580091,58,-38.7688687995695673,-68.2001640971801493
VILLA CURI LEUVÚ,585056,58,-37.17094366458916,-70.4296686921956336
HUINGANCO,580147,58,-37.0638452103236418,-70.5999829263708563
COLONIA MARINA,141197,14,-31.248885905754225,-62.3626031807012708
SAN PATRICIO DEL  CHAÑAR,580021,58,-38.5950644241867167,-68.348288492322709
LOS CHIHUIDOS,585021,58,-38.0504241884088401,-69.5338451224223348
DOLORES,060238,06,-36.3986615535860807,-57.6326112996264897
AZUL,060049,06,-36.7857719233293068,-59.6966521589399619
VILLA EL CHOCÓN,580084,58,-39.2563688848299535,-68.84087188529152
CUTRAL CÓ,580049,58,-38.9398936598765957,-69.2541458274132964
PLAZA HUINCUL,580063,58,-38.9406582608027279,-69.1598555722786443
MAURICIO MAYER,420238,42,-36.2357896411950051,-64.0688110278832141
BAJADA DEL  AGRIO,580224,58,-38.4056776856649478,-70.0310159232412133
MARIANO MORENO,580238,58,-38.768792734204645,-70.0160273047474817
CHOS MALAL,580098,58,-37.35513994230827,-70.2702475118703376
TRICAO MALAL,580105,58,-37.044430466401252,-70.3654033463116804
VILLA SAN JOSÉ,822392,82,-31.3398681543485012,-61.6167311160056883
VARVARCO - INVERNADA VIEJA,585091,58,-36.7933760258871985,-70.5962736544535687
MANZANO AMARGO,585084,58,-36.6887545268273954,-70.8071507874931569
CHORRIACA,585063,58,-37.9190485298908513,-70.0460883788547619
VILLA DEL  PUENTE PICÚN LEUFÚ,585154,58,-39.2076088818139823,-70.0822342331812393
PILO LIL,585028,58,-39.626025416196633,-70.8980298318759594
LOS CATUTOS,585140,58,-38.82899963732293,-70.1262364173041988
SAUZAL BONITO,585042,58,-38.562886482631896,-69.0137546784107769
COLONIA PROSPERIDAD,141204,14,-31.6255205424056598,-62.3816472058384406
COYUCO-COCHICO,585049,58,-36.5418089920472084,-70.2492773646574733
VILLA LAGO MELIQUINA,549999,54,-40.404262519833658,-71.2085623180023077
VILLA LA ANGOSTURA,580133,58,-40.7808534834014509,-71.6236786668395098
RESISTENCIA,220413,22,-27.5954104255766133,-59.1446432497471477
LOS AMORES,824184,82,-28.1216709408037957,-60.2372304630705884
CHOROTIS,220119,22,-27.8809440926129746,-61.5412578288585692
BASAIL,220392,22,-27.8743070022136834,-59.1796870078996875
SANTA SYLVINA,220126,22,-27.8553437327266487,-61.1226107564696477
CORONEL DU GRATY,220308,22,-27.7497326053766216,-60.8951461983409672
PUERTO VILELAS,220406,22,-27.7053948262969101,-58.9105019637920222
HERMOSO CAMPO,220112,22,-27.6219112870160792,-61.3295201873307221
SAMUHÚ,220420,22,-27.6094738169632947,-60.3528866161124995
VILLA ÁNGELA,220322,22,-27.6777566756929119,-60.75578614982863
FONTANA,220399,22,-27.4240633359420762,-59.046895313597453
GENERAL CAPDEVILA,220098,22,-27.4113623607879653,-61.467288816732264
MORTEROS,141309,14,-30.7117689159367622,-62.009153728931345
COTE LAI,220462,22,-27.6903851661282552,-59.5673294759141427
COLONIA POPULAR,220231,22,-27.2943327258119233,-59.1285309815476481
NICOLÁS BRUZZONE,142224,14,-34.4416086343238845,-64.3382488459278505
PUERTO TIROL,220254,22,-27.3809344830458024,-59.2976390762251526
SAN BERNARDO,220350,22,-27.3378730497717974,-60.7011479061372725
AURELIA,822126,82,-31.3921074922445129,-61.4134539756017404
WENCESLAO ESCALANTE,141743,14,-33.1716374700177923,-62.7704160998211265
MAKALLÉ,220161,22,-27.1135329362586468,-59.2318224474401731
LAGUNA BLANCA,220238,22,-27.2269203531939823,-59.1912791042957807
RAFAELA,820042,82,-31.2423283955577453,-61.4875615908817039
CÓRDOBA,140077,14,-31.4170520000062794,-64.1832233457647447
LAPACHITO,220147,22,-27.261298149918133,-59.4682527193081256
LA ESCONDIDA,220140,22,-27.0965245522956231,-59.4870735247902687
VILLA BERTHET,220427,22,-27.2650748138939747,-60.371729773556261
COLONIA SAN BARTOLOMÉ,141211,14,-31.5279808890142625,-62.7236406722185293
LA CLOTILDE,220336,22,-27.1657262689172576,-60.6807380504204446
GANCEDO,220091,22,-27.4071980628510232,-61.633162526332633
MIGUEL CANÉ,420252,42,-36.1708849475111265,-63.5209715100293906
LA VERDE,220154,22,-27.0720366577963105,-59.3269273302485871
GENERAL PINEDO,220105,22,-27.2779150070409244,-61.3663751828744708
MARGARITA BELÉN,220371,22,-27.0890008584069371,-59.0194081969020488
LA TIGRA,220343,22,-27.0834949282190145,-60.6148397314774741
LAS PALMAS,220056,22,-27.1249377281008783,-58.6766006044424415
LA LEONESA,220049,22,-26.9919281600834999,-58.847149724452251
CHARATA,220084,22,-27.1179308914952308,-61.308891055923759
PUERTO BERMEJO,220063,22,-26.8872364610761849,-58.5220496631663281
MARGARITA,824191,82,-31.6832565715807029,-61.6520048498336237
CAPITÁN SOLARI,220434,22,-26.8012560068176953,-59.4375309617601886
PRESIDENCIA DE LA PLAZA,220357,22,-27.046819973149745,-59.7751690486133569
CAMPO LARGO,220217,22,-26.8556252118386709,-60.8027099375602376
CORZUELA,220113,22,-26.849534277710422,-61.0719677178405149
ARROYO CABRAL,140273,14,-32.4891001131456463,-63.4014050637080544
PUERTO EVA PERÓN,220070,22,-26.7118365289814683,-58.6372864423910372
NAPENAY,220224,22,-26.6788380991750529,-60.6303771302480214
CASALEGNO,823750,82,-32.2547015045603658,-61.134143960574221
SAN FABIÁN,823841,82,-32.1678528108474922,-60.8750417147766427
LA EDUVIGIS,220266,22,-26.7315607830315187,-58.9364657658411559
LAS GARCITAS,220455,22,-26.6232885192826352,-59.778856701456391
AROCENA,823722,82,-32.0860982083120163,-60.8840247197208129
PRESIDENTE ROCA,822315,82,-31.2146434131101138,-61.6208017366654133
PAMPA ALMIRÓN,220280,22,-26.6429399384825096,-59.0436721297191696
CIERVO PETISO,220252,22,-26.5687607509273604,-59.6216044052429339
COLONIA ITURRASPE,822182,82,-31.4872374386428717,-61.6182940033774855
COLONIA SAN PEDRO,142952,14,-30.7826893147178708,-61.917354343784055
AVIA TERAI,220210,22,-26.5818308825304648,-60.727136621298996
"GRAL. SAN MARTENGENERAL SAN MARTÍN
GENERAL SAN MARTÍN
GENERAL SAN MARTÍN
GENERAL SAN MARTÍN",220259,22,-26.5221875283041655,-59.2755844593318315
LAGUNA LIMPIA,220273,22,-26.4164829629715499,-59.6828098647245113
MACHAGAI,220476,22,-26.8190200565020902,-60.0187650882889443
CONCEPCIÓN DEL  BERMEJO,220007,22,-26.4390809643573448,-60.9150799106616319
LOS FRENTONES,220014,22,-26.0373154569760246,-61.4747819966241664
JUAN JOSÉ CASTELLI,220182,22,-25.5700294027931818,-60.6362778630959909
MIRAFLORES,220189,22,-25.4782409210672824,-61.0371403012266427
VILLA RÍO BERMEJITO,220203,22,-25.4572628455706997,-60.5125895465679946
PAMPA DEL  INFIERNO,220021,22,-26.3996405608475619,-61.1419915754834165
PRESIDENCIA ROCA,220294,22,-26.1772297025285283,-59.6843651883855486
PAMPA DEL  INDIO,220287,22,-26.0214403532384217,-59.9713281008366224
TACO POZO,220028,22,-25.330267010121613,-62.5887121017356094
MISIÓN NUEVA POMPEYA,220169,22,-24.9918396458622674,-61.5529901499502188
FUERTE ESPERANZA,220175,22,-25.0435535331706944,-61.9982165754166132
EL SAUZALITO,220168,22,-24.6544130660635226,-61.6482494847739062
PLAZA CLUCELLAS,822308,82,-31.437706031283664,-61.72236495830645
COLONIA LIBERTAD,180252,18,-29.9598593070436721,-57.8975786393603329
BONPLAND,180280,18,-29.9449424362472207,-57.4609939770630831
PARADA PUCHETA,180287,18,-29.8319290490766811,-57.5860857472354866
SAUCE,180455,18,-29.9995445616682588,-58.7950373826115111
ESQUINA,180084,18,-29.933781043805844,-59.2266510868594835
CURUZÚ CUATIÁ,180063,18,-29.7994001929416612,-58.2762864775326435
YAPEYÚ,180378,18,-29.3892392506455344,-56.7895830853806913
GUAVIRAVÍ,180364,18,-29.3247220262723971,-56.8201061069555777
MARIANO I. LOZA,180238,18,-29.3427621035548647,-58.165547166119751
LAVALLE,180203,18,-29.0283437433335365,-59.1722758591832019
YATAYTÍ CALLE,180217,18,-29.0601700356195352,-58.7974473916706657
FELIPE YOFRÉ,180231,18,-29.0615191828754469,-58.4042407404600041
TAPEBICUÁ,180301,18,-29.3825487254222431,-56.9944982953596906
PASO DE LOS  LIBRES,180294,18,-29.5103893625180227,-57.304616217926224
CAROLINA,180137,18,-29.1223982164133943,-59.1310526751934731
GOYA,180140,18,-29.3387451805434907,-59.1814817449752937
PERUGORRÍA,180070,18,-29.2938992045436954,-58.5125713784408958
CAÑADA ROSQUÍN,824044,82,-32.0184866476057124,-61.5717382076517623
SANTA LUCÍA,180210,18,-28.9873668184834372,-59.07994307264768
GOBERNADOR MARTÍNEZ,180196,18,-28.9078579201354984,-58.9110919001421038
BIGAND,822049,82,-31.0667175033934129,-61.7175552473552997
PAVÓN ARRIBA,822497,82,-33.3409315517595459,-60.8687429181653954
LA VANGUARDIA,822476,82,-33.3649961070119332,-60.7050628777746297
PAVÓN,822490,82,-33.2423832201544585,-60.4124784992033383
ESTACIÓN CLUCELLAS,822224,82,-31.525259025691728,-61.7126891104404436
CRUZ DE LOS  MILAGROS,180189,18,-28.846005763433606,-59.0819662707521331
9 DE JULIO,180399,18,-28.8264574965270199,-58.8280908377803371
ESTACIÓN TORRENT,180105,18,-28.8169435562936727,-56.4216471648690714
GENERAL SAN MARTÍN,420154,42,-38.2823959989124276,-63.7483607116489353
CHAVARRÍA,180413,18,-28.8781231135238343,-58.5191731993605586
CASA DE PIEDRA,422007,42,-38.2360587226758781,-66.9836778535491675
PEDRO R. FERNÁNDEZ,180406,18,-28.7749450961360331,-58.6540364666007434
MERCEDES,180245,18,-29.0543617301547172,-57.7596459149958932
ALVEAR,180098,18,-28.7678860054041259,-56.5272399231192395
COLONIA PANDO,180417,18,-28.4636196386948441,-58.4395314723756414
TATACUÁ,180056,18,-28.3785989810717929,-58.3050947683704734
SAN ROQUE,180420,18,-28.6004493002962548,-58.6710414606456041
LA CRUZ,180371,18,-28.9102471314715466,-56.9211690740540206
TABAY,180049,18,-28.2854948392920917,-58.2873627355179948
BELLA VISTA,180007,18,-28.4973936042377112,-58.9304362711764185
ANGÉLICA,822112,82,-31.5216603668338635,-61.5042325557348661
COLONIA CARLOS PELLEGRINI,180357,18,-28.5228171265395751,-56.9796607997166049
SANTA MARÍA CENTRO,823246,82,-31.514493653986996,-61.3075023174363736
COLONIA CELLO,822175,82,-31.4429220929439843,-61.8690954995392133
CONCEPCIÓN,180042,18,-28.5085585486294057,-58.0315933081549602
MOISÉS VILLE,823603,82,-30.6313833495720473,-61.4705123255216606
JOSE RAFAEL GOMEZ,180441,18,-28.1940433726910236,-55.8400035689310954
SAN LORENZO,180315,18,-28.162514197022567,-58.7720029879244379
PALACIOS,823631,82,-30.7144943295205231,-61.6505670679056834
COLONIA SANTA ROSA,180035,18,-28.1481432959309252,-57.9454760162157001
SALADAS,180308,18,-28.233342870022323,-58.5563693378129457
GARRUCHOS,180427,18,-28.1045850569418327,-55.7418943441842103
SANTO TOMÉ,180448,18,-28.3306928185425058,-56.3086193944441504
PALMAR GRANDE,180133,18,-27.9237583937916618,-57.9146651736822164
VILLA OLIVARI,180186,18,-27.6297448130988528,-56.9450354098950982
JOSEFINA,822280,82,-31.3919642706150945,-61.9786523589757934
MBURUCUYÁ,180224,18,-28.0163816801488679,-58.1855624499080193
GOBERNADOR ING. VALENTÍN VIRASORO,180434,18,-28.0253723148576057,-56.1463569036020047
SAN MIGUEL,180392,18,-28.0380947065894794,-57.5417436622558895
EMPEDRADO,180077,18,-27.8961218833918565,-58.6658439667826244
SAN ANTONIO,180175,18,-27.5138604971911178,-56.853950257222742
COLONIA LIEBIG'S,180161,18,-27.7796475708550581,-56.0569867005655382
LOMAS DE VALLEJOS,180126,18,-27.7436198256323543,-58.0258178848755577
HERLITZKA,180343,18,-27.617182137132982,-58.3350009974420374
LA HUMADA,420196,42,-36.3956465607268527,-67.9743018865440689
RIACHUELO,180028,18,-27.5959996969931858,-58.7470551543683683
LA PLATA,060441,06,-35.0034938071387742,-58.018027499107454
ALGARROBO DEL  ÁGUILA,420011,42,-36.4002145195533799,-67.408792056852306
CAÁ CATÍ,180112,18,-27.7192849474433238,-57.7316255330138759
ITÁ IBATÉ,180119,18,-27.5323131432038046,-57.3645741822866029
LORETO,180385,18,-27.6650147813030109,-57.2388186771618166
PASO DE LA PATRIA,180322,18,-27.3449909014867885,-58.5797655579125589
SAN CARLOS,180182,18,-27.640363963829941,-56.0279924895072625
BERÓN DE ASTRADA,180014,18,-27.4779720010051207,-57.6113792118726522
SAN LUIS DEL  PALMAR,180350,18,-27.6003413411475833,-58.2610507449512554
SANTA ANA,180336,18,-27.4449964561917845,-58.61187312557891
ITATÍ,180147,18,-27.3440448999979964,-58.0493704609849743
MOCORETÁ,180266,18,-30.548801162898652,-57.9576529352177019
SAN ISIDRO,180143,18,-29.7043266159447867,-59.4177431634826831
SALADILLO,060707,06,-35.6765966680225759,-59.7037033020054153
LAS FLORES,060455,06,-36.0157017377305024,-59.1769657671575828
ROJAS,060686,06,-34.1926035952585607,-60.7879706568364071
ESCOBAR,060252,06,-34.3287181500879939,-58.771128146736622
GENERAL PAZ,060343,06,-35.4662020729312886,-58.3900057061752165
LAS PALMERAS,823596,82,-30.6283200044765529,-61.6225654624814183
CORRIENTES,180021,18,-27.4947779263690464,-58.7710352036827359
ITUZAINGÓ,180168,18,-27.9679022751886635,-56.9170242560002819
RAMADA PASO,180154,18,-27.366935776162709,-58.2998076579153945
SAN COSME,180329,18,-27.3711910798153291,-58.4474511948050122
JOSÉ C. PAZ,060412,06,-34.5118758903444913,-58.7776710941742664
SAN ANTONIO DE ARECO,060735,06,-34.2206591685118653,-59.5193792218302207
MAIPÚ,060511,06,-36.8865728370605979,-57.5861731541635038
MORENO,060560,06,-34.6106171178240203,-58.8109232680034708
LA MATANZA,060427,06,-34.7701738723415161,-58.6254496951505431
GENERAL GUIDO,060308,06,-36.6659831489806578,-57.9957841116939505
GENERAL JUAN MADARIAGA,060315,06,-37.1532136524969516,-57.2307866338234845
TANDIL,060791,06,-37.3356554181577138,-59.1818055777780074
CORONEL SUÁREZ,060203,06,-37.5325532169013911,-61.8893137767698107
ADOLFO GONZALES CHAVES,060014,06,-37.96422541453029,-60.2490776485677273
BAHÍA BLANCA,060056,06,-38.5808546732895081,-62.1656895327093935
ADOLFO ALSINA,060007,06,-37.1963375143523791,-63.0560058448787188
PELLEGRINI,060616,06,-36.2709141317701267,-63.2257388675913319
PUÁN,060651,06,-38.0746044476757106,-63.0577463401746385
VILLARINO,060875,06,-39.1296648457137906,-62.726802430841559
PRESIDENTE PERÓN,060648,06,-34.9298313021931861,-58.3980912466830446
MERLO,060539,06,-34.7108867791705293,-58.7418777656328999
FRONTERA,820035,82,-31.4736517966507279,-62.038842757418621
ESTEBAN ECHEVERRÍA,060260,06,-34.8312099703342426,-58.4769690254140144
ARRECIFES,060077,06,-34.0113151746223892,-60.062762527455277
CAPITÁN SARMIENTO,060140,06,-34.1497065018664898,-59.8548037960898469
CARMEN DE ARECO,060161,06,-34.4067983092212728,-59.8842434040916984
SALTO,060714,06,-34.2708350525696872,-60.3051825663450458
MERCEDES,060532,06,-34.6971944325992894,-59.4208119840100437
PILAR,060638,06,-34.4481990221196099,-58.9034413925772711
LUJÁN,060497,06,-34.5676194636905834,-59.1585123543240883
EXALTACIÓN DE LA CRUZ,060266,06,-34.2951491690699157,-59.1559117007684492
SAN MIGUEL,060760,06,-34.5520919648350926,-58.6917055208825857
SAN ANDRÉS DE GILES,060728,06,-34.437785158638377,-59.4732938848478128
MALVINAS ARGENTINAS,060515,06,-34.4873038284662741,-58.712132997198232
GENERAL SAN MARTÍN,060371,06,-34.5526530521637341,-58.564305030318863
JUNÍN,060413,06,-34.5461283360390254,-61.005494070548778
LINCOLN,060469,06,-35.070384883325957,-61.6827618200122032
MONIGOTES,823610,82,-30.5069495186874917,-61.6110098359563452
ZENÓN PEREYRA,822406,82,-31.5489943704143379,-61.9603711602555407
HURLINGHAM,060408,06,-34.5992140053732982,-58.649694360634939
MORÓN,060560,06,-34.649141065317913,-58.6198433488167581
CHACABUCO,060210,06,-34.6184039263125669,-60.3539279007251821
EUSTOLIA,822238,82,-31.5807528856734834,-61.7656861272865854
ITUZAINGÓ,060410,06,-34.6360018167543302,-58.688758335266705
GENERAL RODRÍGUEZ,060364,06,-34.6503494927057289,-58.9879503249051709
LOMAS DE ZAMORA,060490,06,-34.755464339345167,-58.4240829326533841
GENERAL VIAMONTE,060385,06,-34.9975699247819563,-61.0501968347290855
EZEIZA,060270,06,-34.8758213531443459,-58.5648395364286571
FLORENCIO VARELA,060274,06,-34.8778729879112319,-58.2586377649204366
SUIPACHA,060784,06,-34.7485629683303827,-59.7034737442182148
TRES DE FEBRERO,060840,06,-34.5959862818198189,-58.5790871021680886
CHIVILCOY,060224,06,-34.9157089757003831,-59.9584822196811089
ALBERTI,060021,06,-35.036381795932563,-60.2828693081193023
BRAGADO,060112,06,-35.0610928531070556,-60.6042295511118212
LANÚS,060434,06,-34.7057777293495988,-58.3954527391360472
GENERAL LAS  HERAS,060329,06,-34.9094258328137101,-58.9958733938567121
MARCOS PAZ,060525,06,-34.8137199832046491,-58.8480634347315217
SAN VICENTE,060778,06,-35.0704596398936133,-58.4319219645129095
LOBOS,060483,06,-35.2195598528608755,-59.1458071242931425
GENERAL ALVEAR,060287,06,-36.0345220351901929,-60.1333612561515594
QUILMES,060658,06,-34.7350141996908661,-58.2768874201613514
PILA,060630,06,-36.2023512628960589,-58.3408970254988404
NAVARRO,060574,06,-35.0304083582524513,-59.429785480407979
DOBLAS,420112,42,-37.1752576653958755,-64.0061584536092454
CAÑUELAS,060134,06,-35.1450252367713887,-58.6907790273655081
MARÍA JUANA,822294,82,-31.6755447810503767,-61.7508020504525703
GENERAL LA MADRID,060322,06,-37.3557097661662709,-61.3442438803068413
BOLÍVAR,060105,06,-36.2982217499892599,-61.1496836148107903
BALCARCE,060063,06,-37.7142728192545675,-58.2720776956147972
TAPALQUÉ,060798,06,-36.3471383108251089,-60.1308804386321327
HIPÓLITO YRIGOYEN,060406,06,-36.2593312232241018,-61.6600936665535002
DAIREAUX,060231,06,-36.6405459243248615,-61.8914171279050009
TRES LOMAS,060847,06,-36.497315271652603,-62.8634418902353929
AYACUCHO,060042,06,-37.0347821697162161,-58.4425813265356808
GENERAL ARENALES,060294,06,-34.2374596713144967,-61.283800624238161
GUAMINÍ,060399,06,-36.8905500665857815,-62.4187740896091654
ENSENADA,060245,06,-34.8422541243278303,-57.9789322374943481
LAPRIDA,060448,06,-37.5155525089772368,-60.7680626719213137
RIVADAVIA,060679,06,-35.580962730232379,-63.0945777162383905
PATAGONES,060602,06,-40.1973250421230262,-62.852908591203331
CORONEL DE MARINA LEONARDO ROSALES,060182,06,-38.8488346485234644,-61.836044658144786
BARADERO,060070,06,-33.932191456743638,-59.4929504876901518
SAN PEDRO,060770,06,-33.7819425849293751,-59.7825917634815625
AVELLANEDA,060035,06,-34.6781904917556787,-58.3411476094893047
SAN ISIDRO,060756,06,-34.4869499670190933,-58.537264852252278
BENITO JUÁREZ,060084,06,-37.5852783155949552,-59.8883008698795365
FLORENTINO AMEGHINO,060277,06,-34.8738967496734205,-62.4013534701345591
VIDELA,823974,82,-30.9734119057808464,-60.7055499014400581
COLÓN,060175,06,-33.8860220920301245,-61.0633674925170027
SAAVEDRA,060700,06,-37.7710550160994956,-62.4351452974673151
MONTE HERMOSO,060553,06,-38.9625722366799891,-61.2904738793275925
LOBERÍA,060476,06,-38.0897033467580997,-58.6939656644914507
BERISSO,060098,06,-34.9094634802474246,-57.8283887071809488
TORDILLO,060812,06,-36.3908002975692,-57.274682865625536
SAN FERNANDO,060749,06,-34.1512700249479906,-58.5459540333814843
ZÁRATE,060882,06,-33.9971401820230099,-59.128470961008972
RAMALLO,060665,06,-33.587297239000975,-60.0574845905693806
SAN NICOLÁS,060763,06,-33.482554134046417,-60.2929537316225392
LEANDRO N. ALEM,060462,06,-34.4979563497469996,-61.6129309245572045
SAN BERNARDO,823330,82,-30.8743272113348191,-60.5572731688324808
ANGELONI,823862,82,-30.8601855782972621,-60.7195972959400265
SAN MART,823953,82,-30.2699724952563685,-60.2447290871456005
COLONIA DOLORES,823876,82,-30.4046798589182075,-60.3043525398223395
LA BRAVA,823708,82,-30.4026152229617033,-60.177143416050491
SILVA,823960,82,-30.4504542234147202,-60.4736436617753981
MARCELINO ESCALADA,823918,82,-30.6080397945225187,-60.4264245992866478
RAMAYÓN,823939,82,-30.6120352131513762,-60.5619618649171301
CACIQUE ARIACAIQUÍN,823694,82,-30.5970430508840074,-60.2659296649813356
SAN JUSTO,820259,82,-30.8046074901493867,-60.422449572666828
SUSANA,822364,82,-31.3721186116186672,-61.5304778599987756
HELVECIA,822553,82,-31.0642525453230718,-60.1186164444114013
MELINCUÉ,822693,82,-33.6716299274826056,-61.4800391616203328
MONTE OSCURIDAD,823617,82,-30.4620268964846517,-62.0529528019119212
SUARDI,823666,82,-30.524642501635757,-61.8619386762931001
DOS ROSAS Y LA LEGUA,823540,82,-30.6428436541146993,-61.8891582048212925
SALADERO MARIANO CABAL,822560,82,-30.9263607618271728,-60.0480533134826189
COLONIA BOSSI,823512,82,-30.6725962306310009,-61.7877791707480242
CORONDA,820245,82,-31.9806759524361262,-60.8664313743488776
AMBROSETTI,823484,82,-29.9789705588140691,-61.5468550660325633
SANTURCE,823652,82,-30.1612690129714203,-61.1598892205566429
COLONIA MASCIAS,822546,82,-30.7725602238068667,-59.9651810585308453
PUEBLO IRIGOYEN,823792,82,-32.1612356127734387,-61.0972685546720982
GARIBALDI,822259,82,-31.6567052458795466,-61.8581121485344596
LAS AVISPAS,823589,82,-29.7766332416561781,-61.275838336257614
HUANQUEROS,823554,82,-29.8578882238486472,-61.109071536941812
VILLA OCAMPO,82119,82,-28.4942619198270499,-59.2813301197322176
GOLONDRINA,824163,82,-28.4569944696720576,-60.3399254443494613
SERODINO,822938,82,-32.6127878713444161,-60.9650705458428135
SAN JERÓNIMO SUD,824023,82,-32.8779609603776635,-61.0297454250361895
HERSILIA,823547,82,-29.9757890699803831,-61.8292420298890733
THEOBALD,822532,82,-33.3293737516617199,-60.3485463027432161
GREGORIA PÉREZ DE DENIS,823295,82,-28.1279741795842284,-61.559574469834736
CONSTANZA,823526,82,-30.650384141682455,-61.3044646745537491
FLORENCIA,822798,82,-28.0691596081599251,-59.1445499154819387
SAN GENARO,820256,82,-32.3579824255303805,-61.2663150946778288
SANTA MARGARITA,823337,82,-28.3394245135771747,-61.4560322455386014
GATO COLORADO,823288,82,-28.2303338449872534,-61.0394020640012869
TACUARENDÍ,822861,82,-28.4231273428114761,-59.2907991786096815
ARROYO CEIBAL,822763,82,-28.714988168466526,-59.3815838624303467
AVELLANEDA,820091,82,-29.0659341304612902,-59.535506640347343
RECONQUISTA,820112,82,-29.2273963710043319,-59.6145182688201416
COLONIA DURÁN,823701,82,-29.5713985436229656,-59.966490541171467
CERES,820224,82,-29.8518920386987148,-61.9210332082824024
PARERA,420273,42,-35.1852121657451775,-64.4993137537235413
VILLA GUILLERMINA,822875,82,-28.1380903982547785,-59.6015786536188301
VILLA TRINIDAD,823680,82,-30.2258084495351795,-61.9264658083012662
EL RABÓN,822784,82,-28.2131623564397778,-59.2515639709425557
LAS TOSCAS,820098,82,-28.3336988041535527,-59.2487181017622859
SAN ANTONIO DE OBLIGADO,822854,82,-28.3868266481117644,-59.314655942689221
CAÑADA OMBÚ,824142,82,-28.289158611130734,-60.3199525627909523
VILLA MINETTI,823344,82,-28.5999229836668079,-61.6651694963612584
SAN BERNARDO,823330,82,-28.6804992323525418,-61.2427589341907748
FORTÍN OLMOS,824149,82,-28.9886124948497255,-60.6679527392561226
VILLA ANA,822868,82,-28.4145736812911842,-59.6366616081517975
SAN GUILLERMO,823645,82,-30.3863721375294418,-61.8778467201676108
CURUPAITY,823533,82,-30.3877590159565791,-61.6523661988347058
ARRUFO,823491,82,-30.2359984087839457,-61.6249034870369456
BELLA ITALIA,822140,82,-31.2622960932672953,-61.3812054149924293
LA RUBIA,823582,82,-30.0973769833223663,-61.7593031348436412
COLONIA ANA,823505,82,-30.129895461331742,-61.9664060985720937
LA LUCILA,823575,82,-30.3822950763986732,-61.0007033082146819
CAPIVARA,823498,82,-30.4748021588989637,-61.3146214684995741
COLONIA LA CLARA,823568,82,-30.5475134914913937,-61.065457938735932
SOLEDAD,823659,82,-30.6545005432968907,-60.8488658483027649
MONTEFIORE,823316,82,-29.6238914341953361,-61.8792620133020748
JUAN DE GARAY,823302,82,-29.6658869843341684,-61.66313987991375
ESTEBAN RAMS,823281,82,-29.6759725227318576,-61.4715691081367694
ÑANDUCITA,823624,82,-30.368817880078506,-61.1338175338173997
LA CABRAL,823561,82,-30.0987794685868444,-61.2028509551792794
AGUARÁ GRANDE,823477,82,-29.9880288078493749,-60.8529461195375063
SAN CRISTÓBAL,820231,82,-30.2369464342855672,-61.0979078285954031
PORTUGALETE,823638,82,-30.2375293533564147,-61.3603180374438537
LA CAMILA,823897,82,-30.0720725812594694,-60.6203124846113823
LAS PETACAS,824100,82,-31.8169411699256734,-62.1471490403628835
LA CRIOLLA,823904,82,-30.2005196599267514,-60.5141584435543862
INTIYACO,824170,82,-28.6594190058825902,-60.3442851023736822
ESQUEL,260077,26,-42.9105175261148233,-71.3158427579452479
VERA Y PINTADO,823967,82,-30.128830551067967,-60.343499262219467
LA PENCA Y CARAGUATÁ,823911,82,-30.3232009328101242,-60.5682573680084246
GOBERNADOR CRESPO,823890,82,-30.3421799750288024,-60.3853188155487999
VILLA SARALEGUI,823673,82,-30.4455258045236405,-60.7712567255425995
CALCHAQUÍ,820329,82,-29.8814121219406665,-60.3771331093142862
CASTELLANOS,822168,82,-31.1589792060729245,-61.7393661969737479
ESMERALDA,822217,82,-31.627116574383507,-61.9994639017834785
POZO BORRADO,823323,82,-28.9395330893007525,-61.3862861149060066
TOSTADO,820175,82,-29.2389580395485922,-61.4452591934109691
LOGROÑO,823309,82,-29.4703549874941793,-61.6821385573930314
LA SARITA,822819,82,-28.9623862902098566,-59.8866792710683313
TARTAGAL,824198,82,-28.6814695753019251,-59.8640442542732956
MALABRIGO,820105,82,-29.3304443850771399,-59.9197683451083307
BERNA,822770,82,-29.2271092112468054,-59.9081439943422467
NICANOR MOLINAS,822847,82,-29.1516621451376423,-59.8239493225463548
LA GALLARETA,824177,82,-29.531327879549945,-60.7347043825010715
EL ARAZÁ,822777,82,-29.1213769640089595,-59.9920127998863393
RÍO MAYO,260133,26,-45.7006012562260011,-70.2675090217991709
TOBA,824205,82,-29.2282240317774686,-60.1706890557643916
VERA,820336,82,-29.4127008748965615,-60.3749387661251617
MARGARITA,824191,82,-29.7499448234922141,-60.1474618870776183
LANTERI,822826,82,-28.8470500548191922,-59.6773729365482097
INGENIERO CHANOURDIE,822812,82,-28.6798978864083267,-59.6629245992143566
CASTELAR,824065,82,-31.6768829436232835,-62.1125286445481777
CAYASTACITO,823869,82,-31.1132405530218499,-60.4956435325686854
ESTHER,823883,82,-31.0440868501281955,-60.6059052149218189
VILA,822385,82,-31.1903880171580674,-61.8328200400665295
NARÉ,823925,82,-30.9770832772930902,-60.4468906702836648
LAS GARZAS,822833,82,-28.848570216171165,-59.3466108834928647
GARABATO,824156,82,-28.8887646607729174,-60.214178985022933
TACURALES,822378,82,-30.8161716440531244,-61.756105625017959
HUGENTOBLER,822266,82,-30.9141614845637314,-61.7572439282049999
EUSEBIA Y CAROLINA,822231,82,-30.9415593669600035,-61.8600693100494112
CORONEL FRAGA,822203,82,-31.1787533398122925,-61.9271244055916625
PEDRO GÓMEZ CELLO,823932,82,-30.0051967598470846,-60.4742838680945454
LOS LAURELES,822840,82,-29.3713409435324735,-59.6869269518744545
SAN JAVIER,820238,82,-30.4558826911086378,-59.8905516743231914
PUEBLO MARINI,822322,82,-31.0204426946953653,-61.8822792978699638
SASTRE,820322,82,-31.771279711213861,-61.8336440235563103
SAN MART,824128,82,-31.8394537015401049,-61.6059946110053218
TRAILL,824135,82,-31.9307594351272535,-61.6890101267831454
SAN JORGE,820315,82,-31.9116126709521843,-61.8805263599438362
CRISPI,824079,82,-31.8051981594587758,-62.011791955516216
RUCANELO,425133,42,-36.0180946638784789,-64.8376588340502167
LANDETA,824086,82,-32.0124482746130852,-62.0700498805094298
CARLOS PELLEGRINI,824051,82,-32.053137686424634,-61.816090350508361
CASAS,824058,82,-32.1577234516420774,-61.5717840177540481
EL TRÉBOL,820308,82,-32.2116390000008579,-61.7060904540149977
ROLDÁN,820294,82,-32.8957783490773679,-60.9187521819630788
MARÍA SUSANA,824114,82,-32.2567152780578894,-61.9232689133242857
PIAMONTE,824121,82,-32.1526754969324955,-62.0252761504411936
LOS CARDOS,824107,82,-32.3164649854341022,-61.6082113537085263
LAS BANDURRIAS,824093,82,-32.1422877428110496,-61.4387670818975309
TEODELINA,822749,82,-34.1932681090876471,-61.6062871353185102
CENTENO,823757,82,-32.2799048994368931,-61.387928638475536
BERNARDO DE IRIGOYEN,823736,82,-32.1672138904681404,-61.2655749941585768
GÁLVEZ,820252,82,-32.041132691986526,-61.2351211450964072
MAINQUE,620175,62,-38.8398592335240807,-67.3191257956810887
SANTA CLARA DE BUENA VISTA,823239,82,-31.7853071266297675,-61.3441354183419705
LOMA ALTA,823806,82,-31.9474768920799512,-61.1810300098937248
WHEELWRIGHT,822756,82,-33.8668306170448048,-61.2514088693738543
LUCIO V. LÓPEZ,822910,82,-31.8789098537191222,-61.2823619602877656
CAMPO PIAGGIO,823743,82,-31.9578774355501665,-61.308753641696967
FRANCK,823078,82,-31.5869277209191175,-60.9378478799338765
LAS TUNAS,823127,82,-31.5694628868887222,-61.0124260255542126
JUNCAL,822469,82,-33.7131345050997453,-61.0938153477268386
CALEUFÚ,420063,42,-35.6439826197757412,-64.5916676567603787
GESSLER,823785,82,-31.8890862846595482,-61.1281732028101885
SAN CARLOS SUD,823211,82,-31.7938277427628364,-61.1115762777446463
SAN MARIANO,823232,82,-31.6830923583521944,-61.4074342314159694
SA PEREYRA,823190,82,-31.5971313084420835,-61.3468277202868677
SAN JERÓNIMO DEL  SAUCE,823218,82,-31.608230507384004,-61.1716574428882893
SAN CARLOS CENTRO,820168,82,-31.7036916909090785,-61.1371667633434726
PICHI HUINCA,425112,42,-35.6486769518977482,-64.7947455489824478
MATILDE,823141,82,-31.7909169859256941,-61.0206835646197803
SAN AGUSTÍN,823197,82,-31.6805506670167247,-60.9606129125983571
SAN CARLOS NORTE,823204,82,-31.6460399066645479,-61.0756716878771542
DÍAZ,823771,82,-32.3772801322416868,-61.0760881361808714
BARRANCAS,823729,82,-32.2528057469076188,-60.8994527551702092
MONJE,823827,82,-32.3305490258157064,-60.8606974317872513
MONTE VERA,823001,82,-31.5216062634080352,-60.6571879491945225
MACIEL,823820,82,-32.4308360057879099,-60.9354621768290912
SAN EUGENIO,823834,82,-32.0796414115586543,-61.0968257934086267
LARRECHEA,823799,82,-31.9329952644908737,-61.0603813968282907
SAUCE VIEJO,823029,82,-31.7939652943411915,-60.7838926811252946
SANTA FE,820147,82,-31.6551557199553244,-60.6387714501755326
PILAR,823155,82,-31.4251194068569575,-61.2815859594874581
NUEVO TORINO,823148,82,-31.3321781238898751,-61.2599535857300808
SANTO TOMÉ,820154,82,-31.6486515852289045,-60.7890247854108381
COLONIA SAN JOSÉ,823043,82,-31.6223065299908477,-60.8614530918889756
SAN JERÓNIMO NORTE,823225,82,-31.5258534091477074,-61.0736376747312377
SANTA MARÍA NORTE,823253,82,-31.5131510016902574,-61.173395894077494
PUJATO NORTE,823176,82,-31.5161672425738821,-60.9497533401639302
CAVOUR,823036,82,-31.3872673145397769,-60.9954046960921801
HUMBOLDT,823099,82,-31.4018426247072853,-61.1185199212055394
EMPALME SAN CARLOS,823064,82,-31.5479987890799549,-60.8317705318505446
ESPERANZA,820161,82,-31.4385590389521319,-60.8895310821132583
ARROYO LEYES,822959,82,-31.5426514767853448,-60.4683779918802813
SAN JOSÉ DEL  RINCÓN,823022,82,-31.6105210975463962,-60.5161613565596568
ATALIVA,822119,82,-30.9962504496125568,-61.431801514520636
GALISTEO,822252,82,-31.0188302273946057,-61.3261640759401345
CALCHÍN,140973,14,-31.66765437049634,-63.1974210579747293
RECREO,820144,82,-31.4934750126065275,-60.7360555112084199
SANTA ROSA DE CALCHINES,822567,82,-31.405091105905651,-60.3232768342223054
SARMIENTO,823267,82,-31.0788740540927293,-61.2013457069007174
CAYASTÁ,822539,82,-31.226923719736071,-60.2433549075188282
CALCHÍN OESTE,140980,14,-31.862692509434531,-63.2781089159471364
ARROYO AGUIAR,822952,82,-31.4107990800836703,-60.6125961254153935
HIPATÍA,823092,82,-31.0997692458585,-61.074660932951339
CULULÚ,823050,82,-31.2478117037022116,-60.9262185029575534
PROGRESO,823162,82,-31.1450237160009351,-60.9900262574150531
SOUTOMAYOR,823274,82,-30.9363666742080774,-61.1757853570180501
COLONIA VICENTE AGÜERO,142098,14,-31.016667579395282,-64.0019545091750217
CANDIOTI,822980,82,-31.3933381338547619,-60.759657063536423
TACURAL,822371,82,-30.8033974734615832,-61.6144506254622328
COLONIA RAQUEL,822196,82,-30.8228701986044591,-61.5053825202058491
COLONIA VIDELA,142805,14,-31.9169547649848866,-63.5039908818592167
CAMPO ANDINO,822973,82,-31.2742893672832416,-60.5427040269028041
COLONIA BELGRANO,824072,82,-31.9541122826773396,-61.4215393124085836
PÉREZ,820203,82,-32.9982620628377674,-60.7969296352688744
PIÑERO,823421,82,-33.0903529206549294,-60.7611100951987453
VILLA ELOÍSA,822945,82,-32.9790976473900486,-61.5854778267263399
LAGUNA PAIVA,820140,82,-31.3039882761945805,-60.6655561130064243
NELSON,823008,82,-31.2949655514904954,-60.8134512895267605
RIVADAVIA,823183,82,-31.3073642314223441,-61.0299506997884507
GRUTLY,823085,82,-31.2376882388849566,-61.0940311148995292
FELICIA,823071,82,-31.2182040726477368,-61.231920130103191
LEHMANN,822287,82,-31.126215766896884,-61.4334542945861131
LLAMBI CAMPBELL,822994,82,-31.1753913273891783,-60.6962038548563214
BUSTINZA,822882,82,-32.6894261984961503,-61.3524022732471082
CABAL,822966,82,-31.1047189527505878,-60.7457774013043803
COLONIA VIGNAUD,141218,14,-30.8424347299693338,-61.9554557644487076
EMILIA,822987,82,-31.0545059210377161,-60.7465206018549324
SANTO DOMINGO,823260,82,-31.1119041613447287,-60.8802849962456492
"MARÍA LUISA
MARÍA LUISA
MARÍA LUISA",823134,82,-31.0187839005544177,-60.8916036081997945
LA PELADA,823120,82,-30.862891336567408,-60.9334996977920227
PROVIDENCIA,823169,82,-30.9794167035629329,-61.0284594470812252
ITUZAINGÓ,823106,82,-30.8148965134573416,-61.1425699547602761
JACINTO L. ARAUZ,823113,82,-30.7206002392582462,-60.9560890781576319
ELISA,823057,82,-30.6910583948190379,-61.1094233967844431
HUMBERTO PRIMO,822273,82,-30.8688823528339711,-61.3471968909725334
MAUA,822301,82,-30.7754677444429916,-61.2600717296398685
VIRGINIA,822399,82,-30.7574324549798277,-61.3669141688790276
COLONIA BICHA,822154,82,-30.8610047560585663,-61.8404933743742049
SUNCHALES,820049,82,-30.9512953414672758,-61.5830166844306959
BOUQUET,822007,82,-32.4169834004817901,-61.8772106360395853
LAS ROSAS,820021,82,-32.4624669041901086,-61.6293536644398117
CLASON,822896,82,-32.4901170251451532,-61.34901270093237
MONTES DE OCA,822014,82,-32.6304057747773726,-61.7894896795213171
LAS PAREJAS,820014,82,-32.647557058393609,-61.5805144134391114
TOTORAS,820133,82,-32.5834468055121818,-61.2206195299341829
CORREA,822903,82,-32.8661284216726983,-61.2556105340175279
CHRISTOPHERSEN,822630,82,-34.1766468939856765,-62.0669267336754942
AMENÁBAR,822581,82,-34.0808111397626945,-62.410660981549519
ALCORTA,822413,82,-33.5768599189388794,-61.1369934634345427
M9XIMO PAZ,822483,82,-33.5046629023070111,-60.9632294864284461
COMECHINGONES,142644,14,-31.1716888632059472,-63.6066406773798008
TORTUGAS,822021,82,-32.8223554883576227,-61.7391349322218872
LUQUE,141029,14,-31.646633582639236,-63.3411184061501729
ARMSTRONG,820007,82,-32.8821841927186469,-61.6467090866212004
PUEBLO ANDINO,822924,82,-32.6562575730710947,-60.8950897190287037
RUFINO,820070,82,-34.2413725014123145,-62.6421229474985921
LAZZARINO,822672,82,-34.238133749683783,-62.4179437231131047
DIEGO DE ALVEAR,822637,82,-34.3109550568000259,-62.1448112331167337
SAN GREGORIO,822728,82,-34.2656010564825664,-61.8917105973606283
ALDAO,823981,82,-32.7105750431398477,-60.8602550311509773
CORRALITO,141435,14,-32.0255900678864123,-64.1871324165761763
COSQUÍN,140679,14,-31.230124763412153,-64.6078303478470843
PEYRANO,822504,82,-33.5149086667288145,-60.7830705827464044
FUNES,820189,82,-32.9257676944926914,-60.8261607949761398
COSTASACATE,141008,14,-31.6470824674007609,-63.7622771614346107
LUTTI,142056,14,-32.3065734326663829,-64.7377888610420626
CAÑADA RICA,822427,82,-33.534519721210188,-60.6433660436221729
GENERAL GELLY,822448,82,-33.6039733024624638,-60.5638509648398298
SARGENTO CABRAL,822525,82,-33.456671988724672,-60.6628323941404659
CEPEDA,822434,82,-33.4041900910833078,-60.5863509794203026
MIGUEL RIGLOS,420259,42,-36.8320346409974064,-63.7976877058672684
LOS MOLINOS,822077,82,-33.0630760180591494,-61.3515661128830345
CASILDA,820028,82,-33.0496734903785452,-61.1906668618457772
ALBARELLOS,823358,82,-33.2386305005585925,-60.6273437225374749
CORONEL DOMÍNGUEZ,823470,82,-33.1910836736565784,-60.7384468170915923
AREQUITO,822028,82,-33.1514565982897622,-61.5075643530562459
URANGA,823449,82,-33.2732069574523805,-60.717550448677315
GUATRACHÉ,420161,42,-37.6718770730308492,-63.6737487898962158
SAN JOSÉ DE LA ESQUINA,822091,82,-33.1572759335161535,-61.6885050572592775
EMPALME VILLA CONSTITUCIÓN,822441,82,-33.2818339398833203,-60.4006220966772887
GODOY,822455,82,-33.4159667129409002,-60.4723055010023174
LUYABA,142924,14,-32.1482687509276843,-65.0741168663063831
SANFORD,822098,82,-33.1857451820985645,-61.23322945028562
CHAÑAR LADEADO,822063,82,-33.3079861342603536,-62.0036810567070731
BERABEVÚ,822042,82,-33.2950393682508121,-61.8668567595637384
ARTEAGA,822035,82,-33.1368578390942048,-61.8363472412872852
ÁLVAREZ,823365,82,-33.1403539047981326,-60.8078469904160883
FUENTES,823995,82,-33.1808907129856649,-61.0504190872362855
PUEBLO MUÑOZ,823435,82,-33.1752792379377226,-60.9052927841167673
ACEBAL,823351,82,-33.243383617720788,-60.8804688942708125
MARULL,141295,14,-30.9962750605161013,-62.824461592665493
RUEDA,822511,82,-33.3591482860066506,-60.4258017183045126
JUAN BERNABÉ MOLINA,822462,82,-33.5272345570570849,-60.4979236942086587
VILLA MUGUETA,824037,82,-33.3210672687667397,-61.0446821957671872
MATORRALES,141043,14,-31.714960569613698,-63.5124530187689444
ARMINDA,823379,82,-33.2495867421021742,-60.9618757505240225
LOS QUIRQUINCHOS,822084,82,-33.3121265044985719,-61.715753522762185
CHOVET,822623,82,-33.549866744569222,-61.6504491902120435
CARCARAÑÁ,820273,82,-32.8981441181935992,-61.1309925667750207
SOLDINI,823442,82,-33.0446925470285606,-60.7846806052724915
LUIS PALACIOS,824002,82,-32.7771413141655117,-60.9575837839016614
OLIVEROS,822917,82,-32.5308038570063118,-60.8984798896629869
CABAL,822966,82,-33.2624921319240912,-61.3642886237022438
MURPHY,822707,82,-33.5651286316928648,-61.8493297977915617
VILLADA,822105,82,-33.3390518480358509,-61.4954681918428747
CAÑADA DEL  UCLE,822595,82,-33.3931162937243471,-61.6450157292705185
FIRMAT,820063,82,-33.4467661872121909,-61.4845915557249256
BOMBAL,822420,82,-33.4572041858145042,-61.3052277159594254
CARRERAS,822609,82,-33.625153259247476,-61.3528987414283478
LABORDEBOY,822665,82,-33.7187441454907884,-61.2931820872950723
HUGHES,822651,82,-33.8289201098464076,-61.3698198632529142
VILLA CAÑÁS,820084,82,-34.0190906471634591,-61.6054429048330476
ELORTONDO,822644,82,-33.7743928763854342,-61.5768623551580845
SANTA ISABEL,822742,82,-33.8999932608857222,-61.7327604188631511
CARMEN,822602,82,-33.6869903501738719,-61.7809193437975281
LA CHISPA,822658,82,-33.541936744233027,-61.963806943274399
CAFFERATA,822588,82,-33.4800452654041862,-62.086892987193437
VENADO TUERTO,800277,80,-33.7518202806304757,-61.9744594399441624
GÖDEKEN,822070,82,-33.4139104479582798,-61.8824911849557751
MARÍA TERESA,822686,82,-34.0395665841678365,-61.9128668122657615
MAGGIOLO,822679,82,-33.7396897872561041,-62.2594730717287206
SAN FRANCISCO DE SANTA FE,822721,82,-33.5987741853172395,-62.1410549134040409
SANCTI SPIRITU,822735,82,-33.9895390805554598,-62.2912046220743889
SAN EDUARDO,822714,82,-33.9052421066898546,-62.1203702108473905
PILQUINIYEU,625252,62,-41.8669835874347527,-68.4383244447555228
EL MANSO,625028,62,-41.5877092934517094,-71.5461873896746852
MIGUEL TORRES,822700,82,-33.5358302476391401,-61.4455173944434421
ZAVALLA,823463,82,-33.0171717856177267,-60.9123585668449934
GRAL. FDEZ. ORO,620154,62,-38.9627414832882266,-67.922873528427715
CIPOLLETTI,620133,62,-39.4745034636466343,-68.6996692899549544
BIGAND,822049,82,-33.3710199794765785,-61.1845657738739703
CHAPUY,822616,82,-33.806037066311184,-61.7629859351878423
SANTA TERESA,822518,82,-33.412217229658701,-60.820048366157117
CARMEN DEL  SAUCE,823386,82,-33.2300039630841653,-60.7866248679275856
CAÑADA DE GÓMEZ,820126,82,-32.8434090262570066,-61.4282037638466392
GRANADERO BAIGORRIA,820196,82,-32.8513187425263524,-60.7040059945102186
CORONEL ARNOLD,823988,82,-33.0973182229218352,-60.9718538088050934
CORONEL BOGADO,823393,82,-33.3068723102643816,-60.5882071972283853
CARRIZALES,822889,82,-32.5088944503694677,-61.0545249334282403
LUCIO V. LÓPEZ,822910,82,-32.7559630469566159,-61.0737388987249261
TIMBÚES,824030,82,-32.5743789609184304,-60.8022435517042439
PUERTO GENERAL SAN MARTÍN,82287,82,-32.6821639527933385,-60.7505144595756903
SARMIENTO,260140,26,-45.640520780223909,-69.0158940631978339
SAN LORENZO,820301,82,-32.7444112324121122,-60.7520288999292148
FRAY LUIS BELTRÁN,820280,82,-32.7862746028974783,-60.7339969495167082
CAPITÁN BERMÚDEZ,820266,82,-32.8201185294456579,-60.7155011280833534
IBARLUCEA,823414,82,-32.8521392232929088,-60.8055572417445376
CAMARONES,260063,26,-44.7983158105493544,-65.7501067941953181
PASO DE INDIOS,265021,26,-43.8683992681332455,-69.0483419273241168
COMODORO RIVADAVIA,260049,26,-45.8393410189071915,-67.5913153174428487
ROSARIO,82210,82,-32.9489590047443386,-60.698084296369359
ARROYO VENTANA,625154,62,-41.7917583774206207,-66.0336562102573623
VILLA GOBERNADOR GÁLVEZ,820217,82,-33.0286859947429789,-60.6266965797524762
GENERAL LAGOS,823407,82,-33.1153795046309938,-60.5763483051550082
ALVEAR,823372,82,-33.0710404515635474,-60.6419157603517007
PUEBLO ESTHER,823428,82,-33.0799042599849429,-60.5719619710022883
ARROYO SECO,820182,82,-33.1690763212676814,-60.5458497884712727
VILLA AMELIA,823456,82,-33.1570171302267056,-60.6704349346795837
FIGHIERA,823400,82,-33.2227947553067011,-60.4653854509927555
LAGUNA BLANCA,625231,62,-40.760130240264246,-69.7256094720868447
VILLA CONSTITUCIÓN,820056,82,-33.242503514408007,-60.3189290088334218
SALTO GRANDE,822931,82,-32.6908912128987694,-61.1174499429479425
ALEJANDRA,823687,82,-29.9434037285444212,-59.8247012547277563
NOETINGER,141694,14,-32.3608072067663883,-62.3132776257757968
GABOTO,823778,82,-32.4089489847217962,-60.8071360237378684
AARÓN CASTELLANOS,822574,82,-34.3009579908086693,-62.329186778128495
ÑORQUINCO,620203,62,-41.8467273376903535,-70.8882638485983847
EL BOLSON,620070,62,-41.8628906112854082,-71.529200954754657
NONO,141099,14,-31.8047247770572135,-65.0089907188352072
EL SOMBRERITO,822791,82,-28.6412656897105791,-59.277313770176967
ING. JACOBACCI,620252,62,-41.3324324077447045,-69.5580631515132239
MAQUINCHAO,620266,62,-41.2407347869401022,-68.6864825063140074
SIERRA GRANDE,620238,62,-41.6199292450995912,-65.3927571583057272
SAN CARLOS DE BARILOCHE,620077,62,-41.1225978897056166,-71.3797361980634832
COMALLO,620217,62,-41.0251092261411046,-70.2710463795789053
LOS MENUCOS,620259,62,-40.8262504342814267,-68.0873726971183686
PILCANIYEU,620224,62,-41.0859116021639252,-70.7859482097355226
VALCHETA,620245,62,-40.6689477397888552,-66.164510635956475
SIERRA COLORADA,620196,62,-40.5924390019701846,-67.7020241137006735
MINISTRO RAMOS MEXIA,620189,62,-40.4883111469266197,-67.2563384673479874
CERRO CENTINELA,268021,26,-43.462326230825191,-71.6090756854463422
GUADALUPE NORTE,822805,82,-28.9633631140972696,-59.4143676323244563
ROMANG,823715,82,-29.4901219915798869,-59.8198334757693857
EGUSQUIZA,822210,82,-31.0944039294014374,-61.6230238924310711
DESVÍO ARIJÓN,823764,82,-31.8625427633851395,-60.8689041844499172
RICARDONE,824016,82,-32.7891891714522572,-60.8059217685627402
PUJATO,824009,82,-32.9970194609738243,-61.0482263924062423
COLAN CONHUÉ,268063,26,-43.2569672103579563,-70.0165928358279217
GUARDIA MITRE,620007,62,-40.4374907428096435,-63.7048698215980025
SAN ANTONIO OESTE,620231,62,-40.5429230180034352,-65.2832347104510404
GRAL. ROCA,620161,62,-39.0084775603203084,-67.6126070896437028
CUSHAMEN,268014,26,-42.1630600944266689,-70.6587711745075069
DIQUE FLORENTINO AMEGHINO,268028,26,-43.6946453652295048,-66.4938176077616419
GRAL. CONESA,620084,62,-40.1208064756327829,-64.3692830696643199
POMONA,620063,62,-39.5167601655441416,-65.6588412374935047
DOCTOR RICARDO ROJAS,268098,26,-45.5777033871546138,-71.0372325754431984
LAMARQUE,620049,62,-39.3988847133037581,-65.6791011612072282
LUIS BELTRAN,620056,62,-39.3096814687973932,-65.7874879345285706
CHOELE CHOEL,620028,62,-39.2954108986731114,-65.6496694401312624
CORONEL BELISLE,620035,62,-39.2017811762867225,-65.9758157766284654
DARWIN,620042,62,-39.2170285328299855,-65.7651292587730012
FACUNDO,268105,26,-45.295779058519571,-69.9689190757892163
CHIMPAY,620021,62,-39.1593568616364678,-66.1547548307705
CHICHINALES,620119,62,-39.1295006214717631,-66.9499547671550772
CERVANTES,620112,62,-39.0497340068548269,-67.4340737678692079
CINCO SALTOS,620126,62,-38.8117033664372713,-68.0660751980811654
ALLEN,620091,62,-39.4548258741817151,-68.2367757347548292
INGENIERO HUERGO,620168,62,-38.8373190542738769,-67.2329966686373695
GAN GAN,268126,26,-42.5174537808720103,-68.2827116707788804
CONTRALMIRANTE CORDERO,620140,62,-38.7203467273618003,-68.1230182434354106
CATRIEL,620105,62,-37.8531255573184566,-67.8278538596389495
GASTRE,268035,26,-42.2871756127889853,-69.2167735510543025
CAMPO GRANDE,620098,62,-38.6833232356603816,-68.181307478927863
DINA HUAPI,620273,62,-41.0792931337116727,-71.1511346698346046
GRAL. ENRIQUE GODOY,620147,62,-38.8781596546557395,-67.1569924498787572
VILLA REGINA,620182,62,-38.9398313952734725,-67.0685798585155624
LAS GRUTAS,829999,82,-41.017523274073028,-65.4454880198386064
RÌO COLORADO,620210,62,-39.0037456216053187,-64.083401561232364
RADA TILLY,260056,26,-45.9332658147721844,-67.5779619867227552
SAN JAVIER,625014,62,-40.8543119978496208,-63.6849182819527471
GUALJAINA,265007,26,-42.7142084594082831,-70.5385061881654849
LAGO BLANCO,268112,26,-45.9334874892863922,-71.2821431559324736
NAHUEL NIYEU,625182,62,-40.3520195252549527,-66.5234520435457739
CHIPAUQUIL,625175,62,-40.9951090361059016,-66.6618073695210711
SIERRA PAILEMAN,625189,62,-41.2545511067632447,-66.4262124862793399
LAGUNITA SALADA,268042,26,-42.7651335003203314,-69.1757884059082926
PEÑAS BLANCAS,625105,62,-37.6537990108300988,-68.0360307856015396
LAS PLUMAS,268077,26,-43.7137219194695419,-67.292593065180796
LOS ALTARES,268084,26,-43.8915368579323015,-68.4396612396439536
PASO DEL  SAPO,268070,26,-42.7463204230383198,-69.5836276706305483
PASO FLORES,625035,62,-40.7194201979153974,-70.6386570920084722
AGUADA GUZMAN,625077,62,-40.0648502664188513,-68.9428325675974634
VALLE AZUL,625112,62,-39.2976976982114792,-66.7691271592177173
VILLA LLANQUIN,625042,62,-40.8764816536377467,-71.0123491718888715
AGUADA CECILIO,625168,62,-40.8663529171297029,-65.8978743716421178
CLEMENTE ONELLI,625217,62,-41.2742447606359377,-70.0751620437645215
ARROYO LOS  BERROS,625147,62,-41.4992329032042164,-66.3180512632964962
RINCON DE TRENETA,625119,62,-41.0080872277293125,-67.0041219987909784
DR. ATILIO OSCAR VIGLIONE,268147,26,-44.173102853301387,-71.6794040315732559
YAMINUÉ,625126,62,-41.0317785123532914,-67.2289997540711397
COMICO,625210,62,-41.1358166511192138,-67.4285917982655434
MAMUEL CHOIQUE,625238,62,-41.7859281548501471,-70.1233351467105734
PRAHUANIYEU,625259,62,-41.4322205075104719,-67.7707234083529073
EL CAIN,625224,62,-41.7663746514907217,-67.9105731336341591
AGUADA DE GUERRA,625196,62,-40.9552361898101651,-68.4614433401377198
CONA NIYEU,625161,62,-41.7591468812230744,-66.9600916196988862
EL CUY,625056,62,-39.904213068415828,-68.1435897851708461
TOMÁS MANUEL ANCHORENA,420364,42,-36.8296816826030522,-63.4977798993705775
COLAN CONHUÉ,625203,62,-40.6523873505042062,-69.0264752767974983
OJOS DE AGUA,625245,62,-41.7231304422892606,-69.7583611048089551
TRELEW,260119,26,-43.2489444215853638,-65.3181167768115074
NAUPA HUEN,625098,62,-39.9330478073117305,-69.5423537818291777
MENCUEN,625070,62,-40.2923882541387641,-69.5866017327968933
PILQUINIYEU DEL  LIMAY,625140,62,-40.5306782823035547,-70.0352483234368037
RELMO,425126,42,-36.2436590954093703,-63.4979561556210683
RIO CHICO,625266,62,-41.7550023825728047,-70.4166173577107628
VIEDMA,620014,62,-41.0358083218062788,-62.8205227093205636
VIEDMA,620014,62,-40.8355664396129256,-63.0294646218438714
GAIMAN,260098,26,-43.3084974956966988,-65.5118173147310756
RÍO PICO,260161,26,-44.18134203421954,-71.3431136361393357
ALTO RÍO SENGUER,260126,26,-44.9493845325169303,-71.211731773366381
GOBERNADOR COSTA,260147,26,-44.2923070734091411,-70.7832052068573745
LAGO PUELO,260042,26,-42.0304764901390797,-71.5667357457431308
EL HOYO,260021,26,-42.1082232091106619,-71.4939336193376533
EL MAITÉN,260028,26,-42.1227715249120962,-71.1509289608383
ALDEA BELEIRO,268091,26,-45.5547604536795632,-71.5479426044265097
ALDEA EPULEF,268049,26,-43.3048186911105191,-69.6832150363228209
EPUYÉN,260035,26,-42.2742146687024984,-71.347737938015527
CHOLILA,260014,26,-42.4826328295290025,-71.4218533427071236
PUERTO MADRYN,260007,26,-42.7314766858899873,-65.0483377516849259
JOSÉ DE SAN MARTÍN,260154,26,-44.0515049815561639,-70.4638843298773168
TECKA,260105,26,-43.513164642429274,-70.8303282871390394
CORCOVADO,260070,26,-43.5179298773809791,-71.4570936613240093
RAWSON,260112,26,-43.2585661872237992,-65.0886233413939834
28 DE JULIO,265014,26,-43.3837023377193916,-65.8391207473089111
DOLAVON,260091,26,-43.3329711153711941,-65.6836091125420438
PUERTO PIRÁMIDES,265028,26,-42.5486838278014687,-64.2705125210326145
TELSEN,268133,26,-42.4225080787712159,-66.9530756416637161
TREVELÍN,260084,26,-43.1975385431579753,-71.4504295400791136
ABRAMO,420007,42,-37.9218412713365609,-64.1906632402765212
SANTA TERESA,420343,42,-37.5577310761252434,-63.5302848624150727
MACACHÍN,420231,42,-37.12295505308375,-63.6943937231620794
GENERAL CAMPOS,420140,42,-37.3995272293203556,-63.5266190870234553
TRENEL,420371,42,-35.6413010481655306,-64.1226949154921044
ARATA,420035,42,-35.639651064082102,-64.3719606689049897
RANCUL,420308,42,-35.1568500131534094,-64.8706864412113475
SARAH,425140,42,-35.0689021449120659,-63.6874058774599163
CORONEL HILARIO LAGOS,420105,42,-35.0850242945420376,-63.8577976411478545
BERNARDO LARROUDE,420049,42,-35.0688510274547838,-63.4949611104079281
CEBALLOS,420084,42,-35.262717659407727,-63.8110073128559918
INTENDENTE ALVEAR,420175,42,-35.2731377859157504,-63.5508311755451416
TOAY,420357,42,-36.6824756333842359,-64.7196040508548691
QUEHUÉ,420294,42,-37.1049269830237236,-64.7100455299848107
PUELÉN,420287,42,-37.1503128326127552,-67.6700354194202447
CONHELO,420098,42,-35.989578898804389,-64.6068637776844952
LA MARUJA,420210,42,-35.6516430074803239,-65.0038539234569868
INGENIERO LUIGGI,420168,42,-35.3868979248350684,-64.6342119573137666
EMBAJADOR MARTINI,420126,42,-35.3612111194717968,-64.2940729256624621
EDUARDO CASTEX,420119,42,-35.9371265801400881,-64.3296829486187534
MONTE NIEVAS,420266,42,-35.8739584862966012,-64.1173404843674888
QUEMÚ QUEMÚ,420301,42,-35.9899232091811854,-63.5963423365354856
VILLA MIRASOL,420406,42,-36.0084630949925,-63.9307226012965728
COLONIA BARÓN,420091,42,-36.2070971406290951,-63.8361884288235828
WINIFREDA,420413,42,-36.261182010103191,-64.4552441731365917
LOVENTUÉ,425091,42,-36.1713696479035036,-65.250893879372569
SANTA ISABEL,420329,42,-36.4241719901827352,-66.6047431635362557
TELÉN,420350,42,-36.5134528460899901,-65.7900333947797407
LUAN TORO,420224,42,-36.244121325494028,-65.0217182225343606
CARRO QUEMADO,420070,42,-36.6770495426264276,-65.3294244941345426
ATALIVA ROCA,420042,42,-36.9558969256195269,-64.3793681609510173
ALPACHIRI,420014,42,-37.3878939429661088,-63.8366890133505365
BERNASCONI,420056,42,-38.1726373832168022,-64.0988711483354621
JACINTO ARAUZ,420182,42,-38.2691742864471465,-63.4812273049457971
LA ADELA,420189,42,-38.7835189351641105,-64.1118204002918048
VICTORICA,420399,42,-36.0952859514656978,-65.8441622972005547
SPELUZZI,425147,42,-35.5333472823629535,-63.8703933569322331
METILEO,420245,42,-35.818753313322766,-63.9455158938857338
URIBURU,420378,42,-36.5083737162916009,-63.8303238811821529
LONQUIMAY,420217,42,-36.4918397041486458,-63.6376677251470468
GENERAL ACHA,420133,42,-37.6096833380063131,-65.0659942392503297
SANTA ROSA,420336,42,-36.5322365145791252,-64.4089343089285649
PERÚ,425105,42,-37.6579811945705458,-64.0516815451907462
COLONIA SANTA MARÍA,425028,42,-37.4369062402096517,-64.1768424743253263
UNANUE,425154,42,-37.6124085825330425,-64.3643426957669931
CHACHARRAMENDI,425049,42,-37.2319839948441569,-65.7044365848260128
GENERAL PICO,420147,42,-35.5797742856039676,-63.6162749709165141
LA REFORMA,425077,42,-37.4347070443003318,-66.2286938603008082
LIMAY MAHUIDA,425084,42,-37.1076410505622434,-66.64479343823308
GOBERNADOR DUVAL,425070,42,-38.5453661204737088,-65.8572271584388176
CUCHILLO CÓ,425042,42,-38.2880644808570807,-64.815455641066734
VEINTICINCO DE MAYO,420385,42,-37.7967978817517434,-67.3033281981441291
FALUCHO,425063,42,-35.1878951146314449,-64.0782858104043243
ALTA ITALIA,420021,42,-35.3498672141462151,-64.0994549558220967
ANGUIL,420028,42,-36.5543101532231347,-64.0452421264359515
PUELCHES,420280,42,-38.0312653577146946,-66.0568431795001914
REALICÓ,420315,42,-35.1055266288962002,-64.2414455593926164
VÉRTIZ,420392,42,-35.4203277421275828,-63.9035759107821519
ACHIRAS,140756,14,-33.1696958774563768,-64.9783311643432455
ADELIA MARÍA,140763,14,-33.6333900311038789,-64.0187063512159966
AGUA DE ORO,140084,14,-31.050024501548549,-64.3259937691714896
ALCIRA,140770,14,-32.7517122016284716,-64.3355358980883949
ALDEA SANTA MARÍA,143225,14,-33.6993242969667932,-62.9142238528503128
ALEJANDRO ROCA,140385,14,-33.3442762498230891,-63.7203299331365471
ALEJO LEDESMA,140476,14,-33.5987357093936154,-62.6238535114420003
ALICIA,141162,14,-31.9393591274177489,-62.465597486222876
ALMAFUERTE,141421,14,-32.2022805517205484,-64.2413981036841619
ALPA CORRAL,140777,14,-32.6827523172340335,-64.7275918344128058
ALTA GRACIA,141372,14,-31.6506235252463206,-64.4436954878587329
ALTO ALEGRE,141589,14,-32.3422198194663437,-62.8819564287190005
ALTO DE LOS  QUEBRACHOS,142133,14,-30.5351780991221666,-65.122546508037658
ALTOS DE CHIPIÓN,141169,14,-30.9547219317202931,-62.3373302112666821
AMBOY,142007,14,-32.1764282380888602,-64.5750894423152602
AMBUL,142833,14,-31.5186767924262767,-65.0780298240082828
ANA ZUMARÁN,143232,14,-32.3920332150245613,-63.0580417534197011
ANISACATE,142987,14,-31.7138413750518922,-64.4044575589391712
ARIAS,140483,14,-33.6394688790658662,-62.4028701481866079
ARROYITO,141176,14,-31.4197877113034068,-63.0461064879716062
ARROYO LOS  PATOS,142840,14,-31.764219561874846,-65.0013233421398411
ASSUNTA,142308,14,-33.6337692253497593,-63.2252758695141495
ATAHONA,142609,14,-30.8588942256557743,-63.6494965710202862
AUSONIA,140280,14,-32.5890346393291708,-63.2473324157256087
AVELLANEDA,142259,14,-30.5973098047242793,-64.2284115066381247
BALLESTEROS,141596,14,-32.54623769552596,-62.9807310033667065
BALLESTEROS SUD,141603,14,-32.5887950634732135,-63.0250790508917476
BALNEARIA,141183,14,-31.0090169258663835,-62.6695377581646298
BAÑADO DE SOTO,142140,14,-30.8036031227312357,-65.0550301741106836
CANALS,141624,14,-33.5586948564452996,-62.8811407005031668
CANDELARIA SUD,143169,14,-30.8433176604863313,-63.8032592447913629
BELL VILLE,141610,14,-32.6187289822799187,-62.695039249489291
BENGOLEA,140392,14,-33.0277675204366119,-63.6714870729591453
BENJAMÍN GOULD,141617,14,-33.5839636595370692,-62.7275448917718066
BERROTARÁN,140784,14,-32.4480078457599674,-64.388909862118723
BIALET MASSÉ,140665,14,-31.3121237322311039,-64.5025780020643253
BOUWER,142994,14,-31.5497408867050453,-64.1791819532721775
BRINKMANN,141190,14,-30.8738051951415962,-62.0382117148240937
BUCHARDO,140210,14,-34.7236789574211784,-63.5073115948870779
BULNES,140791,14,-33.5042811125422588,-64.6777003609733327
CABALANGO,142469,14,-31.4009006600680109,-64.5640472582906284
CALMAYO,142014,14,-32.0456338882203369,-64.4583493455314738
CAMILO ALDAO,140490,14,-33.1268229039745066,-62.0953653170540107
CAMINIAGA,143120,14,-30.0636109406398226,-64.0159666937209977
CAPILLA DE LOS  REMEDIOS,142623,14,-31.4269081145412876,-63.8203344245727564
CAPILLA DEL  CARMEN,140987,14,-31.5078552559626566,-63.3412198297322391
CAPILLA DEL  SITÓN,143176,14,-30.5721396926691789,-63.6531617735779989
CAPITÁN GENERAL B. O'HIGGINS,140497,14,-33.2490438734254354,-62.2690389534894848
CARNERILLO,140399,14,-32.9166449024458103,-64.0239837960828737
CARRILOBO,140994,14,-31.8688626120994876,-63.1151968886878265
CASA GRANDE,142476,14,-31.1582887825210726,-64.4781393379559802
CAVANAGH,140504,14,-33.4774018022539792,-62.3387928906848785
CAÑADA DE LUQUE,141512,14,-30.7381485912167811,-63.725138408133958
CAÑADA DE MACHADO,142616,14,-31.4291231437251,-63.5869750076906897
CHARBONIER,142483,14,-30.7610604781621753,-64.5633540903801162
CHARRAS,140406,14,-33.0231292173333557,-64.0481926881725485
CHAZÓN,140287,14,-33.0779841520432711,-63.2744840417553576
CHAÑAR VIEJO,142742,14,-29.992499413623456,-63.8514999217487684
CHILIBROSTE,141631,14,-32.3326918177426137,-62.513414830941251
CHUCUL,142553,14,-33.010848221375845,-64.1704416685286247
CHURQUI CAÑADA,143204,14,-30.2150807804174164,-63.9386675332840255
CHUÑA,142273,14,-30.45497276420679,-64.6415044577513669
CHUÑA HUASI,143127,14,-29.8939402837580701,-64.126086402720091
CIÉNAGA DEL  CORO,142357,14,-31.0053157543172055,-65.2173529646248369
CINTRA,141638,14,-32.3087285653744445,-62.6517297624237841
COLAZO,141001,14,-31.9618836173472616,-63.3815414522131064
COLONIA ALMADA,141428,14,-32.0344936485778575,-63.8637834613237274
COLONIA ANITA,142931,14,-31.1210986173448134,-62.2342507930804487
COLONIA BARGE,142336,14,-33.2560592578889427,-62.6074772843902565
COLONIA BISMARCK,141645,14,-33.3005078918634894,-62.7159959455751732
COLONIA BREMEN,143239,14,-33.4634143562878421,-62.7309923233010096
COLONIA TIROLESA,140098,14,-31.2182550189733199,-64.0295107530514542
COLONIA VALTELINA,142959,14,-31.0524082685550553,-62.2339804279145241
COLONIA CAROYA,140091,14,-31.0541541597820618,-64.0859537870840512
COLONIA ITALIANA,140511,14,-33.3065740201284868,-62.1813642349834126
COLONIA ITURRASPE,142938,14,-31.2076433233756987,-62.1111936572759546
COLONIA LAS  CUATRO ESQUINAS,142637,14,-31.2036266461888729,-63.224324428216633
COLONIA LAS  PICHANAS,142945,14,-31.3039964065617866,-62.9366942797857831
CONLARA,142889,14,-32.0781856148426527,-65.2552002582021515
COPACABANA,142280,14,-30.6442603235698066,-64.5015919158184801
CORONEL BAIGORRIA,140805,14,-32.8535584171105697,-64.3679739325011582
CORONEL MOLDES,140812,14,-33.6213761643601146,-64.5957374156971156
CORRAL DE BUSTOS,140518,14,-33.2798880110050348,-62.1962096731033753
CRUZ ALTA,140525,14,-33.0062840802658712,-61.8111079222228526
CRUZ DE CAÑA,142147,14,-31.0828883237063778,-64.9475909508307865
CRUZ DEL  EJE,140182,14,-30.7457001539119119,-64.7749805365373703
CUESTA BLANCA,142490,14,-31.4850213972869533,-64.5984326274192853
DALMACIO VÉLEZ,141442,14,-32.6124531244939391,-63.5838307311574198
DEÁN FUNES,140371,14,-30.4227482302615151,-64.3546756378303826
DEL CAMPILLO,140217,14,-34.3738504142087535,-64.5317794477809343
DESPEÑADEROS,141379,14,-31.802373396354124,-64.3037279335541143
DEVOTO,141225,14,-31.4054517995146334,-62.3048792337849946
DIEGO DE ROJAS,142651,14,-31.0276086920171501,-63.3412514576710564
DIQUE CHICO,143001,14,-31.7181315346149013,-64.3531607957158513
EL ARAÑADO,141232,14,-31.7420994285225255,-62.8946381603766724
EL BRETE,142154,14,-30.6562768261980345,-64.879843589184361
EL CHACHO,142364,14,-30.8087116780106207,-65.4590362546606457
EL CRISPÍN,142658,14,-31.0189797076703364,-63.6071854343478691
EL FORTÍN,141239,14,-31.9696658576856798,-62.3017073883341581
ESQUINA,142665,14,-31.0965547596048282,-63.7787706826490322
LA RINCONADA,142763,14,-30.1602808580712924,-62.933483718141872
EL MANZANO,142105,14,-31.0820615291112432,-64.3382836028946485
EL RASTREADOR,142315,14,-33.665457592161097,-63.5399472201015598
EL RODEO,143211,14,-30.1647579225082865,-63.8576472993798774
EL TÍO,141246,14,-31.3889356919298272,-62.8225806131391593
ELENA,140819,14,-32.5699065743136131,-64.3939492510854592
EMBALSE,140007,14,-32.2156832682067389,-64.3816869058496479
ESTACIÓN GENERAL PAZ,142112,14,-31.1228499839104877,-64.1473438921362629
ESTACIÓN JUÁREZ CELMAN,140105,14,-31.2437846823994292,-64.1793986490353632
ESTANCIA DE GUADALUPE,142371,14,-31.1856303095221783,-65.2460012237226152
ESTANCIA VIEJA,142497,14,-31.3861392102135959,-64.5263514335073012
ETRURIA,140294,14,-32.9395872460527457,-63.2476339192828121
EUFRASIO LOZA,142749,14,-29.9249635677759294,-63.5895362222016445
LAS VERTIENTES,140847,14,-33.2821528731581111,-64.5798008584752523
LEGUIZAMÓN,142448,14,-34.2047912837600236,-62.9791788265996573
FALDA DEL  CARMEN,143008,14,-31.5761981297037551,-64.4824020120421579
FREYRE,141253,14,-31.1656648235175453,-62.0979078434039096
GENERAL BALDISSERA,140532,14,-33.1235893332124434,-62.3006086559546262
GENERAL CABRERA,140413,14,-32.8126298411652826,-63.870744690722205
GENERAL DEHEZA,140420,14,-32.7619158521805929,-63.792428458282842
GENERAL FOTHERINGHAM,143141,14,-32.3218044631245434,-63.8678208637172489
GENERAL LEVALLE,140616,14,-34.0132450114981921,-63.9268210537680659
GENERAL ROCA,140539,14,-32.7275119390042875,-61.9145008159752877
LA BATEA,142168,14,-30.4282384273219222,-65.268080003281554
GUANACO MUERTO,142161,14,-30.4602024394052968,-65.0659885088885517
GUASAPAMPA,142378,14,-31.1346410780710485,-65.3098829147868827
GUATIMOZÍN,140546,14,-33.4605679567116638,-62.4339429159079558
GÜTEMBERG,142756,14,-29.7037415488940368,-63.5504574858833351
HERNANDO,141449,14,-32.4298361512602469,-63.73197662565196
HUANCHILLA,140427,14,-33.6666603550782071,-63.6351900273338345
LA LAGUNA,140301,14,-32.8019955201198314,-63.2462465865663432
HUERTA GRANDE,140686,14,-31.0720105518089866,-64.4965933938749458
HUINCA RENANCÓ,140224,14,-34.8375108995880964,-64.3759223052139049
IDIAZABAL,141652,14,-32.8118251859774972,-63.0314306796737398
IMPIRA,142812,14,-31.7968283637741429,-63.6502998161586078
INRIVILLE,140553,14,-32.9444827064459034,-62.22323059155935
ISLA VERDE,140560,14,-33.2384139982862763,-62.4029816960787613
ITALÓ,140231,14,-34.7873745654291469,-63.7809993095978811
JAMES CRAIK,141456,14,-32.1653801707883176,-63.4614392143560053
JESÚS MARÍA,140112,14,-30.9830362325548698,-64.1282788962145105
JOVITA,140238,14,-34.5175313443449028,-63.9431016058545865
JUSTINIANO POSSE,141659,14,-32.8851156184589613,-62.68031377389417
KILÓMETRO 658,142672,14,-31.3696370548368897,-63.5309336677359369
LA CALERA,140119,14,-31.3267269836109428,-64.3737475437180677
LA CARLOTA,140434,14,-33.4137059352071404,-63.2963774632445819
"LA CAROLINA ""EL POTOSI""",142560,14,-33.1890811194127764,-64.7267491840148637
LA CAUTIVA,140826,14,-33.9820493176756173,-64.0855019234334407
LA CESIRA,140623,14,-33.9522414433711788,-62.9759295184543717
LA PAMPA,143183,14,-30.9460219430715782,-64.2677377008499207
LA CRUZ,140014,14,-32.3103751578825964,-64.4805613408481975
LA PAQUITA,141267,14,-30.9068096845911988,-62.2150441956889964
LA PARA,140903,14,-30.8971059716297702,-62.9963436299142288
LA CUMBRE,140693,14,-30.9742621645479588,-64.5043560850964326
LA POBLACIÓN,142896,14,-32.0779893265375051,-64.9970015769107476
LA POSTA,142679,14,-30.5684483421589412,-63.515098380026366
LA CUMBRECITA,143015,14,-31.8983867615394239,-64.7864838705700663
LA PUERTA,140910,14,-30.8889405990295209,-63.254493767119456
LA QUINTA,142686,14,-31.0758714912753895,-63.150350455357227
LA RANCHERITA,143029,14,-31.7557848353359944,-64.4614102717181225
LA FALDA,140700,14,-31.1037750919778979,-64.5246847485322093
LA FRANCIA,141260,14,-31.4046082891521827,-62.6361489012367443
LA GRANJA,140126,14,-31.0000989874001647,-64.2753880432832858
LA HIGUERA,142175,14,-31.0154711503327007,-65.1033033166761896
LA PAISANITA,143022,14,-31.6984186695998957,-64.4786608714554603
LA PALESTINA,140308,14,-32.6146851668885773,-63.4099507025161273
LEONES,140567,14,-32.6533880566012371,-62.2977757843412334
LOS CEDROS,143043,14,-31.531175787647765,-64.2883373164957419
LA PAZ,141127,14,-32.2557108768273508,-65.0934018857064274
LA PLAYA,142385,14,-30.9491510486569972,-65.3481568256985241
LA PLAYOSA,140315,14,-32.0989683198623155,-63.0325027208143069
LA SERRANITA,143036,14,-31.7411366811168705,-64.4617824313022254
LA TORDILLA,141274,14,-31.2431510613549399,-63.0622120893957785
LABORDE,141666,14,-33.1508319281253705,-62.8591932549994397
LABOULAYE,140630,14,-34.1281097677491019,-63.3878358370211075
LAGUNA LARGA,141015,14,-31.7757220077538776,-63.7859839452442046
LAS ACEQUIAS,140833,14,-33.2801000794919943,-63.9782972324100783
MATTALDI,140245,14,-34.4853031976435389,-64.1779147615067558
LAS ALBAHACAS,142567,14,-32.8970347535301215,-64.8169079716601999
LAS ARRIAS,141547,14,-30.3900762225366243,-63.5849095072048556
LAS BAJADAS,142028,14,-32.0921713040564356,-64.3402635611921596
LAS CALERAS,142035,14,-32.4017331649057567,-64.5188920061475244
LAS CALLES,142847,14,-31.8359492924171548,-64.9288940967687722
LAS CAÑADAS,142182,14,-30.9742278112505396,-64.7644259351544065
LAS GRAMILLAS,142693,14,-31.1361592294240488,-63.2664711757620495
LAS HIGUERAS,140840,14,-33.1041248833880957,-64.294437538039773
LAS ISLETILLAS,143148,14,-32.5081704675122296,-63.929420878959192
LAS JUNTURAS,141022,14,-31.8295740966289813,-63.4501240234634949
LAS PALMAS,142413,14,-31.3748540741685709,-65.3329790750063495
LAS PERDICES,141463,14,-32.6989898408240407,-63.7067140965954621
LAS PEÑAS,141519,14,-30.5554859462904993,-64.0024875130835085
LAS PEÑAS SUD,142574,14,-32.5334055082121694,-64.1083139877236761
LAS PLAYAS,142189,14,-30.7125399415491103,-64.851200542917752
LOS CERRILLOS,142910,14,-31.9499649051029628,-65.4006487224588398
LOS CHAÑARITOS (C.D. EJE),142196,14,-31.4014391052477002,-63.3341908709152577
LAS RABONAS,142854,14,-31.8709623753908815,-64.9489427851812593
LAS SALADAS,142700,14,-30.7601509435352796,-63.2043193813075561
LAS TAPIAS,142903,14,-31.9439409128127494,-65.1083345433485903
LAS VARAS,141281,14,-31.80372203275423,-62.6189189981064516
LAS VARILLAS,141288,14,-31.8753386744316636,-62.7085088077583706
LOS CHAÑARITOS,142819,14,-30.5735504195721752,-64.9612218742980616
LOS CISNES,140441,14,-33.3762768113126072,-63.4708798480832357
LOS COCOS,140707,14,-30.9267368141278425,-64.5025995122289402
LOS HORNILLOS,142917,14,-31.8985332069954275,-64.987448941036206
LOS HOYOS,142770,14,-29.7848497549882048,-63.6266756739873998
LOS MISTOLES,143190,14,-30.6263459398010447,-63.8831334918174178
LOS SURGENTES,140574,14,-32.9743449135050568,-62.0146845594700977
LOS MOLINOS,142042,14,-31.8565529914793863,-64.3791077708500552
LOS POZOS,142287,14,-30.5184524118583766,-64.26490721731642
LOS TALARES,142420,14,-31.4025933536005262,-65.0582614564783341
LOS ZORROS,141470,14,-32.0450607687748814,-63.2063904788811968
LOZADA,141386,14,-31.654609919927136,-64.093711769734
LOS REARTES,142049,14,-31.9153125304694356,-64.5898352613712774
MALAGUEÑO,141393,14,-31.4598780400585696,-64.3967893605340009
MALENA,142581,14,-33.4904506753775522,-64.4317442961674942
MAYU SUMAJ,142504,14,-31.4660174565972675,-64.5496322149149506
MEDIA NARANJA,142203,14,-30.6312650658571251,-64.9392510631274433
MELO,140637,14,-34.3493518732702086,-63.4365776529173857
MALVINAS ARGENTINAS,140133,14,-31.3908457182217369,-64.010456669489102
MANFREDI,141036,14,-31.8442770336695915,-63.7430657929285474
MAQUINISTA GALLINI,142707,14,-30.918197825688452,-63.5346280358156505
MARCOS JUÁREZ,140581,14,-32.6834634699150541,-62.105318455173169
MORRISON,141687,14,-32.5929163426720194,-62.8337927569311461
MENDIOLAZA,140140,14,-31.2585432498764746,-64.2848467061891711
MI GRANJA,142119,14,-31.3275574709174087,-63.9790002860051885
MINA CLAVERO,141092,14,-31.6760818624426825,-64.9145503162229573
MIRAMAR,141302,14,-30.9171637587503803,-62.6691619837421641
MONTE BUEY,140588,14,-32.9169889907274253,-62.45314991256339
MONTE CRISTO,140917,14,-31.3145501675442652,-63.900995998140445
MONTE DE LOS  GAUCHOS,140854,14,-33.6360402337959741,-63.9021542900956163
MONTE LEÑA,141673,14,-32.6073407618879472,-62.5887953092073914
MONTE MAÍZ,141680,14,-33.2059969112393887,-62.6035104209720714
MONTE RALO,141400,14,-31.9160854413817638,-64.2355903371876877
OBISPO TREJO,140924,14,-30.7769384027746113,-63.4166185018715112
OLAETA,140448,14,-33.0441850270043886,-63.9100511143704253
OLIVA,141477,14,-32.048597888087123,-63.5570228461854398
OLIVARES DE SAN NICOLÁS,142294,14,-30.5460582548383073,-64.87876658815442
ONAGOITY,142231,14,-34.7699095275566918,-63.6717128404407617
ONCATIVO,141050,14,-31.9151263882847083,-63.676002408206358
ORDÓÑEZ,141701,14,-32.8406260509866357,-62.8645079041339585
PACHECO DE MELO,142322,14,-33.7577742616375005,-63.4894551789837465
PAMPAYASTA NORTE,143155,14,-32.2379956630960578,-63.6569925653937929
PAMPAYASTA SUD,141484,14,-32.2615771632819204,-63.6532371104856551
PANAHOLMA,142861,14,-31.6204775594047867,-65.0686397589954311
PASCANAS,141708,14,-33.1262394371826119,-63.0411760442871554
PASCO,140329,14,-32.7453423023259091,-63.3402135333334115
PASO VIEJO,142210,14,-30.7663464619764646,-65.1910942537930964
PILAR,141057,14,-31.6802864251569183,-63.8821893916395709
PINCEN,142238,14,-34.8383140184063791,-63.9175546184508647
PIQUILLÍN,140931,14,-31.3014822797673062,-63.7592227132230818
PLAZA DE MERCEDES,142714,14,-30.9772250492069716,-63.2611760527181488
PLAZA LUXARDO,142966,14,-31.3075262309916695,-62.1458650159188508
PORTEÑA,141316,14,-30.9889513794181823,-62.0632043172450096
POTRERO DE GARAY,143050,14,-31.8011586456790951,-64.5891432550296685
POZO DEL  MOLLE,141064,14,-32.0191752758652797,-62.9178333970772314
POZO NUEVO,143134,14,-29.5752928863073734,-64.1248945764176739
PUEBLO ITALIANO,141715,14,-33.8797412509002811,-62.8419046433190189
PUESTO DE CASTRO,142777,14,-30.1936676598579403,-63.4025697720489276
PUNTA DEL  AGUA,143162,14,-32.5765144963957241,-63.8111899638921471
QUEBRACHO HERRADO,141323,14,-31.5498828557019237,-62.227047967239308
QUILINO,140378,14,-30.2204887977381738,-64.4778221489410299
RAFAEL GARCÍA,143057,14,-31.6484813084360859,-64.261463361607511
RANQUELES,142245,14,-34.8429525115099068,-64.0999800172126299
RAYO CORTADO,142784,14,-30.0719376972619372,-63.8284331360140413
REDUCCIÓN,140455,14,-33.2028095475754199,-63.8627303675096059
RINCÓN,142826,14,-31.5941777031771629,-63.6262147970324392
RÍO BAMBA,142455,14,-34.0601407054622314,-63.7340063162335966
RÍO CEBALLOS,140147,14,-31.172982663730302,-64.3191044525332245
RÍO CUARTO,140861,14,-33.1155580023709888,-64.3570883812807466
RÍO DE LOS  SAUCES,140028,14,-32.5008531571475316,-64.7121378346359819
RÍO PRIMERO,140938,14,-31.3296360408912342,-63.6234759919454405
RÍO SEGUNDO,141071,14,-31.644015791506785,-63.9009945616550539
RÍO TERCERO,141491,14,-32.16839348013022,-64.102708940200074
ROSALES,140644,14,-34.1747592562317024,-63.1529797656942691
ROSARIO DEL  SALADILLO,143218,14,-30.3653429543530287,-63.3904225262120704
SACANTA,141330,14,-31.6643044904366668,-63.0467526560951157
SAGRADA FAMILIA,142721,14,-31.2879311408046235,-63.44538925188359
SAIRA,140595,14,-32.4083063626491139,-62.1010565233928062
SALADILLO,142343,14,-32.9330379413915466,-62.3430346300725233
SALDÁN,140154,14,-31.3147407774699396,-64.3108946086378808
SALSACATE,140609,14,-31.3393766709380195,-65.1282172380765729
SAN AGUSTÍN,140056,14,-31.9727259844157814,-64.3764401661817942
SALSIPUEDES,140161,14,-31.124816653376616,-64.3006220022837596
SAMPACHO,140868,14,-33.3725117758152479,-64.708108701399226
SAN ANTONIO DE ARREDONDO,142511,14,-31.5250380100715581,-64.5441084512019501
SAN ANTONIO DE LITÍN,141722,14,-32.2154566164448539,-62.6331396610770952
SAN BASILIO,140875,14,-33.497539526671936,-64.315456251836423
SAN ESTEBAN,140714,14,-30.9214339905767233,-64.5316310918849609
SAN FRANCISCO,141337,14,-31.4291183141885071,-62.1082677652082964
SAN FRANCISCO DEL  CHAÑAR,141414,14,-29.8335821929535712,-63.9388834433132018
SAN CARLOS MINAS,140602,14,-31.1637575067469257,-65.0830995258614848
SAN CLEMENTE,143064,14,-31.7222791862548981,-64.6344801875430761
SAN GERÓNIMO,142427,14,-31.3559936708057094,-64.9294145436899868
SAN JOSÉ,141141,14,-31.9806239572522415,-65.3167014254429006
SAN JOSÉ DE LA DORMIDA,141561,14,-30.3571542328117907,-63.9475675958769685
SAN JOSÉ DE LAS  SALINAS,141568,14,-30.0065939301357787,-64.5964266269363065
TINOCO,142728,14,-31.1045315982934589,-63.9052535784127258
SAN IGNACIO,142063,14,-32.1516825639596675,-64.5469099126919019
SAN JAVIER Y YACANTO,141134,14,-32.0189945410787971,-65.0356489768240351
SAN JOAQUÍN,142462,14,-34.5108814934930166,-63.7131847441999852
SAN LORENZO,142868,14,-31.6586437934171521,-65.005101408765583
SAN MARCOS SIERRAS,140189,14,-30.767318831143335,-64.6511803149358997
SAN MARCOS SUD,141729,14,-32.6262603360861121,-62.4804580153711484
SAN PEDRO,141106,14,-31.8743510648851469,-65.24505849348445
SAN PEDRO NORTE,141575,14,-30.2554577373608673,-64.2146114629846778
SAN ROQUE,142518,14,-31.3514245506071596,-64.4504675476139681
SAN VICENTE,142875,14,-31.8370903607737468,-65.5309219740348681
SANTA CATALINA,140882,14,-33.2024080778911213,-64.4262539399711613
SANTA ELENA,142791,14,-30.1147826429304359,-63.8587957361286769
SANTA EUFEMIA,140462,14,-33.1935446312946283,-63.2841258885037377
SANTA MARÍA DE PUNILLA,140721,14,-31.2670502928977783,-64.5162902727265077
TRÁNSITO,141358,14,-31.431324903411344,-63.1947377387049372
TUCLAME,142217,14,-30.7468404971543308,-65.2357340089555748
UCACHA,140469,14,-33.0317994602079423,-63.5071355437660472
SANTA ROSA DE CALAMUCHITA,140035,14,-32.0753029618980179,-64.5467001962975218
SANTIAGO TEMPLE,141078,14,-31.3899995373349796,-63.4185697040229428
SEGUNDA USINA,142070,14,-32.1752598435179564,-64.372692652633944
SERRANO,140651,14,-34.4755850792196696,-63.5333659644618365
SARMIENTO,141526,14,-30.7749694403189835,-64.1199257245699528
SATURNINO MARÍA LASPIUR,141344,14,-31.7034577338369878,-62.4833254315983453
SAUCE ARRIBA,142882,14,-31.9111884774185626,-65.162547951832039
SEBASTIÁN ELCANO,140959,14,-30.1594216007126938,-63.5927415022851079
SEEBER,141351,14,-30.9253280210718025,-62.019685075919476
TALAINI,142392,14,-31.2400441687222923,-65.1738445719239792
SERREZUELA,140196,14,-30.5673524944776958,-65.3514532144563418
SILVIO PELLICO,140336,14,-32.251178928708832,-62.9325509169842903
SIMBOLAR,143197,14,-30.4759380124635157,-63.9848922540635598
TANCACHA,141498,14,-32.2395132273511393,-63.9792575326274431
TANTI,140728,14,-31.3619877805977794,-64.5694692159223962
TICINO,140343,14,-32.6948787489747659,-63.4350474292111102
VILLA CANDELARIA NORTE,142798,14,-29.8240610680011606,-63.342831512457316
SINSACATE,141533,14,-30.9422713589299079,-64.0806973366607764
SUCO,142588,14,-33.4414356242941082,-64.8290466867185415
TALA CAÑADA,142434,14,-31.3589576280074454,-64.9982605968851743
TALA HUASI,142525,14,-31.4670111937151553,-64.5727841482700171
VILLA CARLOS PAZ,140742,14,-31.4206918540758942,-64.5088844540427431
TÍO PUJIO,140350,14,-32.2799480172568849,-63.3517757301300364
TOLEDO,141407,14,-31.5526503925745416,-64.0108138150316393
TORO PUJIO,142973,14,-31.1056274024480501,-62.9975126154701925
TOSNO,142399,14,-30.9455846794061884,-65.2828381577686372
TOSQUITA,140889,14,-33.8214399062637909,-64.4611155218708802
UNQUILLO,140168,14,-31.2192351356384563,-64.3345156620741108
VALLE DE ANISACATE,143071,14,-31.7350762329000951,-64.4192206419266427
VALLE HERMOSO,140735,14,-31.1323725662679749,-64.492099049532797
VIAMONTE,141736,14,-33.7473048096682291,-63.0994810512003355
VICUÑA MACKENNA,140896,14,-33.9288149320524823,-64.4072934720761197
VILLA CURA BROCHERO,141113,14,-31.7099063545720092,-65.0155388613376601
VILLA DE LAS  ROSAS,141148,14,-31.9394491625970183,-65.0365731182786391
VILLA ALLENDE,140175,14,-31.2723301734497987,-64.33614569130809
VILLA DE MARÍA,140966,14,-29.8941782214697334,-63.7251634049095443
VILLA DE POCHO,142441,14,-31.4730827915555516,-65.2841808159513874
VILLA LA BOLSA,143092,14,-31.7320720279432074,-64.4294772612582562
FORTIN EL PATRIA,749175,74,-34.7739596252621155,-65.5216731228319134
VILLA AMANCAY,142077,14,-32.2182599982267206,-64.5805601977720301
